{"type":"FeatureCollection","bbox":[144.9286331,-37.84752524,144.9856254,-37.78289944],"crs":{"type":"name","properties":{"name":"EPSG:4283"}},"features":[{"type":"Feature","geometry":{"type":"Point","coordinates":[144.9656034,-37.81483458]},"properties":{"property_id":105919,"clue_small_area":"Melbourne (CBD)","trading_name":"Polepole Bar","census_year":2016,"longitude":144.9656034,"latitude":-37.81483458,"street_address":"267 Little Collins Street","number_of_patrons":100,"block_id":35,"base_property_id":105919},"id":"com_clue_bar_tavern_pub_patron_capacity_2016.fid--2ea3ac96_163341f620f_-3b8a"},{"type":"Feature","geometry":{"type":"Point","coordinates":[144.9655966,-37.8166033]},"properties":{"property_id":101789,"clue_small_area":"Melbourne (CBD)","trading_name":"Hell's Kitchen","census_year":2016,"longitude":144.9655966,"latitude":-37.8166033,"street_address":"252-254 Flinders Lane","number_of_patrons":55,"block_id":25,"base_property_id":101789},"id":"com_clue_bar_tavern_pub_patron_capacity_2016.fid--2ea3ac96_163341f620f_-3b89"},{"type":"Feature","geometry":{"type":"Point","coordinates":[144.9643593,-37.81143223]},"properties":{"property_id":109302,"clue_small_area":"Melbourne (CBD)","trading_name":"Bornga","census_year":2016,"longitude":144.9643593,"latitude":-37.81143223,"street_address":"281-287 Swanston Street","number_of_patrons":40,"block_id":85,"base_property_id":109302},"id":"com_clue_bar_tavern_pub_patron_capacity_2016.fid--2ea3ac96_163341f620f_-3b88"},{"type":"Feature","geometry":{"type":"Point","coordinates":[144.9643593,-37.81143223]},"properties":{"property_id":109302,"clue_small_area":"Melbourne (CBD)","trading_name":"Mui Karaoke","census_year":2016,"longitude":144.9643593,"latitude":-37.81143223,"street_address":"281-287 Swanston Street","number_of_patrons":243,"block_id":85,"base_property_id":109302},"id":"com_clue_bar_tavern_pub_patron_capacity_2016.fid--2ea3ac96_163341f620f_-3b87"},{"type":"Feature","geometry":{"type":"Point","coordinates":[144.9733817,-37.79303229]},"properties":{"property_id":101450,"clue_small_area":"Carlton","trading_name":"Dan O'Connell Hotel","census_year":2016,"longitude":144.9733817,"latitude":-37.79303229,"street_address":"223-227 Canning Street","number_of_patrons":100,"block_id":228,"base_property_id":101450},"id":"com_clue_bar_tavern_pub_patron_capacity_2016.fid--2ea3ac96_163341f620f_-3b86"},{"type":"Feature","geometry":{"type":"Point","coordinates":[144.9669911,-37.81162502]},"properties":{"property_id":109952,"clue_small_area":"Melbourne (CBD)","trading_name":"Manchuria","census_year":2016,"longitude":144.9669911,"latitude":-37.81162502,"street_address":"7-9 Waratah Place","number_of_patrons":80,"block_id":66,"base_property_id":109952},"id":"com_clue_bar_tavern_pub_patron_capacity_2016.fid--2ea3ac96_163341f620f_-3b85"},{"type":"Feature","geometry":{"type":"Point","coordinates":[144.960908,-37.81323451]},"properties":{"property_id":104659,"clue_small_area":"Melbourne (CBD)","trading_name":"The Mill","census_year":2016,"longitude":144.960908,"latitude":-37.81323451,"street_address":"67-73 Hardware Lane","number_of_patrons":119,"block_id":64,"base_property_id":104659},"id":"com_clue_bar_tavern_pub_patron_capacity_2016.fid--2ea3ac96_163341f620f_-3b84"},{"type":"Feature","geometry":{"type":"Point","coordinates":[144.9672365,-37.81156167]},"properties":{"property_id":108550,"clue_small_area":"Melbourne (CBD)","trading_name":"Escape City","census_year":2016,"longitude":144.9672365,"latitude":-37.81156167,"street_address":"213-217 Russell Street","number_of_patrons":100,"block_id":66,"base_property_id":108550},"id":"com_clue_bar_tavern_pub_patron_capacity_2016.fid--2ea3ac96_163341f620f_-3b83"},{"type":"Feature","geometry":{"type":"Point","coordinates":[144.9643316,-37.81741878]},"properties":{"property_id":103172,"clue_small_area":"Melbourne (CBD)","trading_name":"The Joint Bar","census_year":2016,"longitude":144.9643316,"latitude":-37.81741878,"street_address":"31-39 Elizabeth Street","number_of_patrons":329,"block_id":14,"base_property_id":103172},"id":"com_clue_bar_tavern_pub_patron_capacity_2016.fid--2ea3ac96_163341f620f_-3b82"},{"type":"Feature","geometry":{"type":"Point","coordinates":[144.9655481,-37.81158031]},"properties":{"property_id":105694,"clue_small_area":"Melbourne (CBD)","trading_name":"The Emerald Peacock","census_year":2016,"longitude":144.9655481,"latitude":-37.81158031,"street_address":"233-237 Lonsdale Street","number_of_patrons":300,"block_id":66,"base_property_id":105694},"id":"com_clue_bar_tavern_pub_patron_capacity_2016.fid--2ea3ac96_163341f620f_-3b81"},{"type":"Feature","geometry":{"type":"Point","coordinates":[144.9657541,-37.79725532]},"properties":{"property_id":101613,"clue_small_area":"Carlton","trading_name":"Clyde Hotel","census_year":2016,"longitude":144.9657541,"latitude":-37.79725532,"street_address":"377-391 Cardigan Street","number_of_patrons":239,"block_id":204,"base_property_id":101613},"id":"com_clue_bar_tavern_pub_patron_capacity_2016.fid--2ea3ac96_163341f620f_-3b80"},{"type":"Feature","geometry":{"type":"Point","coordinates":[144.9589387,-37.80389369]},"properties":{"property_id":103276,"clue_small_area":"Carlton","trading_name":"The Last Jar","census_year":2016,"longitude":144.9589387,"latitude":-37.80389369,"street_address":"614-616 Elizabeth Street","number_of_patrons":250,"block_id":260,"base_property_id":103276},"id":"com_clue_bar_tavern_pub_patron_capacity_2016.fid--2ea3ac96_163341f620f_-3b7f"},{"type":"Feature","geometry":{"type":"Point","coordinates":[144.9673764,-37.79998572]},"properties":{"property_id":106215,"clue_small_area":"Carlton","trading_name":"Carlton Yacht Club Bar","census_year":2016,"longitude":144.9673764,"latitude":-37.79998572,"street_address":"298 Lygon Street","number_of_patrons":46,"block_id":218,"base_property_id":106215},"id":"com_clue_bar_tavern_pub_patron_capacity_2016.fid--2ea3ac96_163341f620f_-3b7e"},{"type":"Feature","geometry":{"type":"Point","coordinates":[144.9672432,-37.8005263]},"properties":{"property_id":106222,"clue_small_area":"Carlton","trading_name":"University Hotel","census_year":2016,"longitude":144.9672432,"latitude":-37.8005263,"street_address":"270-276 Lygon Street","number_of_patrons":111,"block_id":218,"base_property_id":106222},"id":"com_clue_bar_tavern_pub_patron_capacity_2016.fid--2ea3ac96_163341f620f_-3b7d"},{"type":"Feature","geometry":{"type":"Point","coordinates":[144.9693866,-37.81648541]},"properties":{"property_id":104020,"clue_small_area":"Melbourne (CBD)","trading_name":"Forum Theatre Bar","census_year":2016,"longitude":144.9693866,"latitude":-37.81648541,"street_address":"150-162 Flinders Street","number_of_patrons":1500,"block_id":16,"base_property_id":104020},"id":"com_clue_bar_tavern_pub_patron_capacity_2016.fid--2ea3ac96_163341f620f_-3b7c"},{"type":"Feature","geometry":{"type":"Point","coordinates":[144.9613142,-37.81409153]},"properties":{"property_id":104653,"clue_small_area":"Melbourne (CBD)","trading_name":"Campari House","census_year":2016,"longitude":144.9613142,"latitude":-37.81409153,"street_address":"21-25 Hardware Lane","number_of_patrons":326,"block_id":54,"base_property_id":104653},"id":"com_clue_bar_tavern_pub_patron_capacity_2016.fid--2ea3ac96_163341f620f_-3b7b"},{"type":"Feature","geometry":{"type":"Point","coordinates":[144.9627098,-37.81858716]},"properties":{"property_id":104003,"clue_small_area":"Melbourne (CBD)","trading_name":"Candela Nuevo","census_year":2016,"longitude":144.9627098,"latitude":-37.81858716,"street_address":"2-8 Queen Street","number_of_patrons":300,"block_id":14,"base_property_id":104003},"id":"com_clue_bar_tavern_pub_patron_capacity_2016.fid--2ea3ac96_163341f620f_-3b7a"},{"type":"Feature","geometry":{"type":"Point","coordinates":[144.9683751,-37.81635789]},"properties":{"property_id":103938,"clue_small_area":"Melbourne (CBD)","trading_name":"Mon Bijou","census_year":2016,"longitude":144.9683751,"latitude":-37.81635789,"street_address":"187 Flinders Lane","number_of_patrons":180,"block_id":16,"base_property_id":103938},"id":"com_clue_bar_tavern_pub_patron_capacity_2016.fid--2ea3ac96_163341f620f_-3b79"},{"type":"Feature","geometry":{"type":"Point","coordinates":[144.9704262,-37.79652005]},"properties":{"property_id":108202,"clue_small_area":"Carlton","trading_name":"The Beaufort","census_year":2016,"longitude":144.9704262,"latitude":-37.79652005,"street_address":"415-421 Rathdowne Street","number_of_patrons":50,"block_id":215,"base_property_id":108202},"id":"com_clue_bar_tavern_pub_patron_capacity_2016.fid--2ea3ac96_163341f620f_-3b78"},{"type":"Feature","geometry":{"type":"Point","coordinates":[144.9678126,-37.79694555]},"properties":{"property_id":106186,"clue_small_area":"Carlton","trading_name":"Astor Hotel","census_year":2016,"longitude":144.9678126,"latitude":-37.79694555,"street_address":"414-422 Lygon Street","number_of_patrons":120,"block_id":214,"base_property_id":106186},"id":"com_clue_bar_tavern_pub_patron_capacity_2016.fid--2ea3ac96_163341f620f_-3b77"},{"type":"Feature","geometry":{"type":"Point","coordinates":[144.9671779,-37.7975082]},"properties":{"property_id":106153,"clue_small_area":"Carlton","trading_name":"Wolfs Lair","census_year":2016,"longitude":144.9671779,"latitude":-37.7975082,"street_address":"331-335 Lygon Street","number_of_patrons":80,"block_id":207,"base_property_id":106153},"id":"com_clue_bar_tavern_pub_patron_capacity_2016.fid--2ea3ac96_163341f620f_-3b76"},{"type":"Feature","geometry":{"type":"Point","coordinates":[144.9685944,-37.80578725]},"properties":{"property_id":108154,"clue_small_area":"Carlton","trading_name":"Epocha Restaurant","census_year":2016,"longitude":144.9685944,"latitude":-37.80578725,"street_address":"49 Rathdowne Street","number_of_patrons":124,"block_id":268,"base_property_id":108153},"id":"com_clue_bar_tavern_pub_patron_capacity_2016.fid--2ea3ac96_163341f620f_-3b75"},{"type":"Feature","geometry":{"type":"Point","coordinates":[144.9645057,-37.80448528]},"properties":{"property_id":101593,"clue_small_area":"Carlton","trading_name":"Hotel Lincoln","census_year":2016,"longitude":144.9645057,"latitude":-37.80448528,"street_address":"91-95 Cardigan Street","number_of_patrons":154,"block_id":255,"base_property_id":101593},"id":"com_clue_bar_tavern_pub_patron_capacity_2016.fid--2ea3ac96_163341f620f_-3b74"},{"type":"Feature","geometry":{"type":"Point","coordinates":[144.9656988,-37.80619915]},"properties":{"property_id":106081,"clue_small_area":"Carlton","trading_name":"The Curtin","census_year":2016,"longitude":144.9656988,"latitude":-37.80619915,"street_address":"27-31 Lygon Street","number_of_patrons":350,"block_id":266,"base_property_id":106081},"id":"com_clue_bar_tavern_pub_patron_capacity_2016.fid--2ea3ac96_163341f620f_-3b73"},{"type":"Feature","geometry":{"type":"Point","coordinates":[144.9630313,-37.81782313]},"properties":{"property_id":103951,"clue_small_area":"Melbourne (CBD)","trading_name":"Bull And Bear Tavern","census_year":2016,"longitude":144.9630313,"latitude":-37.81782313,"street_address":"341-347 Flinders Lane","number_of_patrons":415,"block_id":14,"base_property_id":103951},"id":"com_clue_bar_tavern_pub_patron_capacity_2016.fid--2ea3ac96_163341f620f_-3b72"},{"type":"Feature","geometry":{"type":"Point","coordinates":[144.9637238,-37.81771479]},"properties":{"property_id":103947,"clue_small_area":"Melbourne (CBD)","trading_name":"Sebel Melbourne - Flinders Lane","census_year":2016,"longitude":144.9637238,"latitude":-37.81771479,"street_address":"317-323 Flinders Lane","number_of_patrons":60,"block_id":14,"base_property_id":103947},"id":"com_clue_bar_tavern_pub_patron_capacity_2016.fid--2ea3ac96_163341f620f_-3b71"},{"type":"Feature","geometry":{"type":"Point","coordinates":[144.9670522,-37.80245924]},"properties":{"property_id":106238,"clue_small_area":"Carlton","trading_name":"Players On Lygon","census_year":2016,"longitude":144.9670522,"latitude":-37.80245924,"street_address":"192-202 Lygon Street","number_of_patrons":200,"block_id":247,"base_property_id":106238},"id":"com_clue_bar_tavern_pub_patron_capacity_2016.fid--2ea3ac96_163341f620f_-3b70"},{"type":"Feature","geometry":{"type":"Point","coordinates":[144.9667699,-37.80344164]},"properties":{"property_id":106244,"clue_small_area":"Carlton","trading_name":"Vodka Temple","census_year":2016,"longitude":144.9667699,"latitude":-37.80344164,"street_address":"160-162 Lygon Street","number_of_patrons":200,"block_id":252,"base_property_id":106244},"id":"com_clue_bar_tavern_pub_patron_capacity_2016.fid--2ea3ac96_163341f620f_-3b6f"},{"type":"Feature","geometry":{"type":"Point","coordinates":[144.9658102,-37.81472467]},"properties":{"property_id":109271,"clue_small_area":"Melbourne (CBD)","trading_name":"Max Watt's","census_year":2016,"longitude":144.9658102,"latitude":-37.81472467,"street_address":"125-133 Swanston Street","number_of_patrons":800,"block_id":35,"base_property_id":109271},"id":"com_clue_bar_tavern_pub_patron_capacity_2016.fid--2ea3ac96_163341f620f_-3b6e"},{"type":"Feature","geometry":{"type":"Point","coordinates":[144.9675807,-37.81390779]},"properties":{"property_id":105964,"clue_small_area":"Melbourne (CBD)","trading_name":"Gin Palace","census_year":2016,"longitude":144.9675807,"latitude":-37.81390779,"street_address":"188-194 Little Collins Street","number_of_patrons":150,"block_id":46,"base_property_id":105964},"id":"com_clue_bar_tavern_pub_patron_capacity_2016.fid--2ea3ac96_163341f620f_-3b6d"},{"type":"Feature","geometry":{"type":"Point","coordinates":[144.960908,-37.81323451]},"properties":{"property_id":104659,"clue_small_area":"Melbourne (CBD)","trading_name":"Charlie's Bar","census_year":2016,"longitude":144.960908,"latitude":-37.81323451,"street_address":"67-73 Hardware Lane","number_of_patrons":143,"block_id":64,"base_property_id":104659},"id":"com_clue_bar_tavern_pub_patron_capacity_2016.fid--2ea3ac96_163341f620f_-3b6c"},{"type":"Feature","geometry":{"type":"Point","coordinates":[144.967831,-37.81342885]},"properties":{"property_id":108537,"clue_small_area":"Melbourne (CBD)","trading_name":"QT Melbourne","census_year":2016,"longitude":144.967831,"latitude":-37.81342885,"street_address":"131-141 Russell Street","number_of_patrons":185,"block_id":46,"base_property_id":108537},"id":"com_clue_bar_tavern_pub_patron_capacity_2016.fid--2ea3ac96_163341f620f_-3b6b"},{"type":"Feature","geometry":{"type":"Point","coordinates":[144.9665747,-37.80530329]},"properties":{"property_id":106251,"clue_small_area":"Carlton","trading_name":"Lagers On Lygon","census_year":2016,"longitude":144.9665747,"latitude":-37.80530329,"street_address":"66-88 Lygon Street","number_of_patrons":80,"block_id":267,"base_property_id":106251},"id":"com_clue_bar_tavern_pub_patron_capacity_2016.fid--2ea3ac96_163341f620f_-3b6a"},{"type":"Feature","geometry":{"type":"Point","coordinates":[144.9713489,-37.8143446]},"properties":{"property_id":102064,"clue_small_area":"Melbourne (CBD)","trading_name":"La Chinesca","census_year":2016,"longitude":144.9713489,"latitude":-37.8143446,"street_address":"69-73 Collins Street","number_of_patrons":210,"block_id":27,"base_property_id":102064},"id":"com_clue_bar_tavern_pub_patron_capacity_2016.fid--2ea3ac96_163341f620f_-3b69"},{"type":"Feature","geometry":{"type":"Point","coordinates":[144.9603112,-37.81680457]},"properties":{"property_id":100727,"clue_small_area":"Melbourne (CBD)","trading_name":"Mitre Tavern","census_year":2016,"longitude":144.9603112,"latitude":-37.81680457,"street_address":"5-9 Bank Place","number_of_patrons":300,"block_id":33,"base_property_id":100727},"id":"com_clue_bar_tavern_pub_patron_capacity_2016.fid--2ea3ac96_163341f620f_-3b68"},{"type":"Feature","geometry":{"type":"Point","coordinates":[144.9605765,-37.81654467]},"properties":{"property_id":100730,"clue_small_area":"Melbourne (CBD)","trading_name":"Melbourne Savage Club","census_year":2016,"longitude":144.9605765,"latitude":-37.81654467,"street_address":"12-16 Bank Place","number_of_patrons":90,"block_id":33,"base_property_id":100730},"id":"com_clue_bar_tavern_pub_patron_capacity_2016.fid--2ea3ac96_163341f620f_-3b67"},{"type":"Feature","geometry":{"type":"Point","coordinates":[144.9603413,-37.81631094]},"properties":{"property_id":105936,"clue_small_area":"Melbourne (CBD)","trading_name":"Dikstein's Corner Bar","census_year":2016,"longitude":144.9603413,"latitude":-37.81631094,"street_address":"433 Little Collins Street","number_of_patrons":145,"block_id":33,"base_property_id":105936},"id":"com_clue_bar_tavern_pub_patron_capacity_2016.fid--2ea3ac96_163341f620f_-3b66"},{"type":"Feature","geometry":{"type":"Point","coordinates":[144.960452,-37.8162783]},"properties":{"property_id":105934,"clue_small_area":"Melbourne (CBD)","trading_name":"Cafe De Tuscany","census_year":2016,"longitude":144.960452,"latitude":-37.8162783,"street_address":"429 Little Collins Street","number_of_patrons":117,"block_id":33,"base_property_id":105934},"id":"com_clue_bar_tavern_pub_patron_capacity_2016.fid--2ea3ac96_163341f620f_-3b65"},{"type":"Feature","geometry":{"type":"Point","coordinates":[144.9678476,-37.81450301]},"properties":{"property_id":102152,"clue_small_area":"Melbourne (CBD)","trading_name":"The Long Room","census_year":2016,"longitude":144.9678476,"latitude":-37.81450301,"street_address":"162-168 Collins Street","number_of_patrons":620,"block_id":36,"base_property_id":102152},"id":"com_clue_bar_tavern_pub_patron_capacity_2016.fid--2ea3ac96_163341f620f_-3b64"},{"type":"Feature","geometry":{"type":"Point","coordinates":[144.9600859,-37.81638558]},"properties":{"property_id":105937,"clue_small_area":"Melbourne (CBD)","trading_name":"Marrakech Bar","census_year":2016,"longitude":144.9600859,"latitude":-37.81638558,"street_address":"435-443 Little Collins Street","number_of_patrons":200,"block_id":33,"base_property_id":105937},"id":"com_clue_bar_tavern_pub_patron_capacity_2016.fid--2ea3ac96_163341f620f_-3b63"},{"type":"Feature","geometry":{"type":"Point","coordinates":[144.9541999,-37.81367535]},"properties":{"property_id":105318,"clue_small_area":"Melbourne (CBD)","trading_name":"Hotel Sophia","census_year":2016,"longitude":144.9541999,"latitude":-37.81367535,"street_address":"277-287 King Street","number_of_patrons":116,"block_id":71,"base_property_id":105318},"id":"com_clue_bar_tavern_pub_patron_capacity_2016.fid--2ea3ac96_163341f620f_-3b62"},{"type":"Feature","geometry":{"type":"Point","coordinates":[144.9608287,-37.81351769]},"properties":{"property_id":515538,"clue_small_area":"Melbourne (CBD)","trading_name":"Paris Cat Jazz Club","census_year":2016,"longitude":144.9608287,"latitude":-37.81351769,"street_address":"4-6 Goldie Place","number_of_patrons":120,"block_id":64,"base_property_id":515538},"id":"com_clue_bar_tavern_pub_patron_capacity_2016.fid--2ea3ac96_163341f620f_-3b61"},{"type":"Feature","geometry":{"type":"Point","coordinates":[144.9641302,-37.81697242]},"properties":{"property_id":103174,"clue_small_area":"Melbourne (CBD)","trading_name":"Fiftyfive","census_year":2016,"longitude":144.9641302,"latitude":-37.81697242,"street_address":"55-57 Elizabeth Street","number_of_patrons":88,"block_id":24,"base_property_id":103174},"id":"com_clue_bar_tavern_pub_patron_capacity_2016.fid--2ea3ac96_163341f620f_-3b60"},{"type":"Feature","geometry":{"type":"Point","coordinates":[144.9614724,-37.81124935]},"properties":{"property_id":103207,"clue_small_area":"Melbourne (CBD)","trading_name":"The Meeting Place","census_year":2016,"longitude":144.9614724,"latitude":-37.81124935,"street_address":"315-321 Elizabeth Street","number_of_patrons":250,"block_id":84,"base_property_id":103207},"id":"com_clue_bar_tavern_pub_patron_capacity_2016.fid--2ea3ac96_163341f620f_-3b5f"},{"type":"Feature","geometry":{"type":"Point","coordinates":[144.9657034,-37.810658]},"properties":{"property_id":589841,"clue_small_area":"Melbourne (CBD)","trading_name":"Strike Bowling","census_year":2016,"longitude":144.9657034,"latitude":-37.810658,"street_address":"221 Little Lonsdale Street","number_of_patrons":370,"block_id":76,"base_property_id":105749},"id":"com_clue_bar_tavern_pub_patron_capacity_2016.fid--2ea3ac96_163341f620f_-3b5e"},{"type":"Feature","geometry":{"type":"Point","coordinates":[144.9665913,-37.81180178]},"properties":{"property_id":635138,"clue_small_area":"Melbourne (CBD)","trading_name":"Union Electric","census_year":2016,"longitude":144.9665913,"latitude":-37.81180178,"street_address":"13 Heffernan Lane","number_of_patrons":72,"block_id":66,"base_property_id":635138},"id":"com_clue_bar_tavern_pub_patron_capacity_2016.fid--2ea3ac96_163341f620f_-3b5d"},{"type":"Feature","geometry":{"type":"Point","coordinates":[144.9571505,-37.820166]},"properties":{"property_id":103993,"clue_small_area":"Melbourne (CBD)","trading_name":"Waterside Hotel","census_year":2016,"longitude":144.9571505,"latitude":-37.820166,"street_address":"508-514 Flinders Street","number_of_patrons":983,"block_id":11,"base_property_id":103993},"id":"com_clue_bar_tavern_pub_patron_capacity_2016.fid--2ea3ac96_163341f620f_-3b5c"},{"type":"Feature","geometry":{"type":"Point","coordinates":[144.9683751,-37.81635789]},"properties":{"property_id":103938,"clue_small_area":"Melbourne (CBD)","trading_name":"The Adelphi Hotel","census_year":2016,"longitude":144.9683751,"latitude":-37.81635789,"street_address":"187 Flinders Lane","number_of_patrons":80,"block_id":16,"base_property_id":103938},"id":"com_clue_bar_tavern_pub_patron_capacity_2016.fid--2ea3ac96_163341f620f_-3b5b"},{"type":"Feature","geometry":{"type":"Point","coordinates":[144.9716757,-37.81587662]},"properties":{"property_id":574438,"clue_small_area":"Melbourne (CBD)","trading_name":"Eau-De-Vie ","census_year":2016,"longitude":144.9716757,"latitude":-37.81587662,"street_address":"84-94 Flinders Street","number_of_patrons":150,"block_id":17,"base_property_id":574438},"id":"com_clue_bar_tavern_pub_patron_capacity_2016.fid--2ea3ac96_163341f620f_-3b5a"},{"type":"Feature","geometry":{"type":"Point","coordinates":[144.9656034,-37.81483458]},"properties":{"property_id":105919,"clue_small_area":"Melbourne (CBD)","trading_name":"Bar Americano","census_year":2016,"longitude":144.9656034,"latitude":-37.81483458,"street_address":"267 Little Collins Street","number_of_patrons":10,"block_id":35,"base_property_id":105919},"id":"com_clue_bar_tavern_pub_patron_capacity_2016.fid--2ea3ac96_163341f620f_-3b59"},{"type":"Feature","geometry":{"type":"Point","coordinates":[144.967023,-37.817356]},"properties":{"property_id":109257,"clue_small_area":"Melbourne (CBD)","trading_name":"Young & Jacksons","census_year":2016,"longitude":144.967023,"latitude":-37.817356,"street_address":"1-7 Swanston Street","number_of_patrons":470,"block_id":15,"base_property_id":109257},"id":"com_clue_bar_tavern_pub_patron_capacity_2016.fid--2ea3ac96_163341f620f_-3b58"},{"type":"Feature","geometry":{"type":"Point","coordinates":[144.960731,-37.81328585]},"properties":{"property_id":104376,"clue_small_area":"Melbourne (CBD)","trading_name":"Word","census_year":2016,"longitude":144.960731,"latitude":-37.81328585,"street_address":"14-20 Goldie Place","number_of_patrons":200,"block_id":64,"base_property_id":104376},"id":"com_clue_bar_tavern_pub_patron_capacity_2016.fid--2ea3ac96_163341f620f_-3b57"},{"type":"Feature","geometry":{"type":"Point","coordinates":[144.966904,-37.80951668]},"properties":{"property_id":108567,"clue_small_area":"Melbourne (CBD)","trading_name":"Jankara Japanese Bar","census_year":2016,"longitude":144.966904,"latitude":-37.80951668,"street_address":"300 Russell Street","number_of_patrons":80,"block_id":87,"base_property_id":108567},"id":"com_clue_bar_tavern_pub_patron_capacity_2016.fid--2ea3ac96_163341f620f_-3b56"},{"type":"Feature","geometry":{"type":"Point","coordinates":[144.9599402,-37.81167474]},"properties":{"property_id":106037,"clue_small_area":"Melbourne (CBD)","trading_name":"Alchemist's Refuge","census_year":2016,"longitude":144.9599402,"latitude":-37.81167474,"street_address":"324-328 Little Lonsdale Street","number_of_patrons":60,"block_id":84,"base_property_id":106037},"id":"com_clue_bar_tavern_pub_patron_capacity_2016.fid--2ea3ac96_163341f620f_-3b55"},{"type":"Feature","geometry":{"type":"Point","coordinates":[144.9602499,-37.81190077]},"properties":{"property_id":106018,"clue_small_area":"Melbourne (CBD)","trading_name":"Horse Bazaar","census_year":2016,"longitude":144.9602499,"latitude":-37.81190077,"street_address":"395-397 Little Lonsdale Street","number_of_patrons":158,"block_id":74,"base_property_id":106018},"id":"com_clue_bar_tavern_pub_patron_capacity_2016.fid--2ea3ac96_163341f620f_-3b54"},{"type":"Feature","geometry":{"type":"Point","coordinates":[144.9654659,-37.81866105]},"properties":{"property_id":104034,"clue_small_area":"Melbourne (CBD)","trading_name":"Clocks At Flinders Street Station","census_year":2016,"longitude":144.9654659,"latitude":-37.81866105,"street_address":"207-361 Flinders Street","number_of_patrons":300,"block_id":4,"base_property_id":104034},"id":"com_clue_bar_tavern_pub_patron_capacity_2016.fid--2ea3ac96_163341f620f_-3b53"},{"type":"Feature","geometry":{"type":"Point","coordinates":[144.9551524,-37.82020482]},"properties":{"property_id":108971,"clue_small_area":"Melbourne (CBD)","trading_name":"Holiday Inn On Flinders Melbourne","census_year":2016,"longitude":144.9551524,"latitude":-37.82020482,"street_address":"561-585 Flinders Lane","number_of_patrons":100,"block_id":11,"base_property_id":108971},"id":"com_clue_bar_tavern_pub_patron_capacity_2016.fid--2ea3ac96_163341f620f_-3b52"},{"type":"Feature","geometry":{"type":"Point","coordinates":[144.959442,-37.81730302]},"properties":{"property_id":102123,"clue_small_area":"Melbourne (CBD)","trading_name":"Menzies Tavern Hotel","census_year":2016,"longitude":144.959442,"latitude":-37.81730302,"street_address":"446-452 Collins Street","number_of_patrons":197,"block_id":33,"base_property_id":102123},"id":"com_clue_bar_tavern_pub_patron_capacity_2016.fid--2ea3ac96_163341f620f_-3b51"},{"type":"Feature","geometry":{"type":"Point","coordinates":[144.9707325,-37.8091842]},"properties":{"property_id":110721,"clue_small_area":"Melbourne (CBD)","trading_name":"The Fringe","census_year":2016,"longitude":144.9707325,"latitude":-37.8091842,"street_address":"33-39 Little Lonsdale Street","number_of_patrons":400,"block_id":78,"base_property_id":580091},"id":"com_clue_bar_tavern_pub_patron_capacity_2016.fid--2ea3ac96_163341f620f_-3b50"},{"type":"Feature","geometry":{"type":"Point","coordinates":[144.9714481,-37.8086111]},"properties":{"property_id":108991,"clue_small_area":"Melbourne (CBD)","trading_name":"Elm's Family Hotel","census_year":2016,"longitude":144.9714481,"latitude":-37.8086111,"street_address":"267-271 Spring Street","number_of_patrons":200,"block_id":78,"base_property_id":108991},"id":"com_clue_bar_tavern_pub_patron_capacity_2016.fid--2ea3ac96_163341f620f_-3b4f"},{"type":"Feature","geometry":{"type":"Point","coordinates":[144.9713808,-37.81156933]},"properties":{"property_id":101230,"clue_small_area":"Melbourne (CBD)","trading_name":"Romeo Lane","census_year":2016,"longitude":144.9713808,"latitude":-37.81156933,"street_address":"54-62 Bourke Street","number_of_patrons":25,"block_id":58,"base_property_id":101230},"id":"com_clue_bar_tavern_pub_patron_capacity_2016.fid--2ea3ac96_163341f620f_-3b4e"},{"type":"Feature","geometry":{"type":"Point","coordinates":[144.9630189,-37.81073331]},"properties":{"property_id":105746,"clue_small_area":"Melbourne (CBD)","trading_name":"Partyworld","census_year":2016,"longitude":144.9630189,"latitude":-37.81073331,"street_address":"183-265 La Trobe Street","number_of_patrons":500,"block_id":85,"base_property_id":105746},"id":"com_clue_bar_tavern_pub_patron_capacity_2016.fid--2ea3ac96_163341f620f_-3b4d"},{"type":"Feature","geometry":{"type":"Point","coordinates":[144.9717262,-37.81546152]},"properties":{"property_id":103592,"clue_small_area":"Melbourne (CBD)","trading_name":"The Fair Trader Cafe","census_year":2016,"longitude":144.9717262,"latitude":-37.81546152,"street_address":"11-37 Exhibition Street","number_of_patrons":118,"block_id":17,"base_property_id":103592},"id":"com_clue_bar_tavern_pub_patron_capacity_2016.fid--2ea3ac96_163341f620f_-3b4c"},{"type":"Feature","geometry":{"type":"Point","coordinates":[144.9712639,-37.81118056]},"properties":{"property_id":105657,"clue_small_area":"Melbourne (CBD)","trading_name":"Double Happiness Bar \/ New Gold Mountain","census_year":2016,"longitude":144.9712639,"latitude":-37.81118056,"street_address":"21 Liverpool Street","number_of_patrons":164,"block_id":58,"base_property_id":105657},"id":"com_clue_bar_tavern_pub_patron_capacity_2016.fid--2ea3ac96_163341f620f_-3b4b"},{"type":"Feature","geometry":{"type":"Point","coordinates":[144.953752,-37.81738969]},"properties":{"property_id":108965,"clue_small_area":"Melbourne (CBD)","trading_name":"The Savoy Tavern","census_year":2016,"longitude":144.953752,"latitude":-37.81738969,"street_address":"134-160 Spencer Street","number_of_patrons":594,"block_id":41,"base_property_id":108965},"id":"com_clue_bar_tavern_pub_patron_capacity_2016.fid--2ea3ac96_163341f620f_-3b4a"},{"type":"Feature","geometry":{"type":"Point","coordinates":[144.9651474,-37.81181063]},"properties":{"property_id":109390,"clue_small_area":"Melbourne (CBD)","trading_name":"Goldilocks","census_year":2016,"longitude":144.9651474,"latitude":-37.81181063,"street_address":"264-266 Swanston Street","number_of_patrons":300,"block_id":66,"base_property_id":109390},"id":"com_clue_bar_tavern_pub_patron_capacity_2016.fid--2ea3ac96_163341f620f_-3b49"},{"type":"Feature","geometry":{"type":"Point","coordinates":[144.9699175,-37.81784465]},"properties":{"property_id":578321,"clue_small_area":"Melbourne (CBD)","trading_name":"Beer De Luxe","census_year":2016,"longitude":144.9699175,"latitude":-37.81784465,"street_address":"2 Swanston Street","number_of_patrons":1000,"block_id":6,"base_property_id":573333},"id":"com_clue_bar_tavern_pub_patron_capacity_2016.fid--2ea3ac96_163341f620f_-3b48"},{"type":"Feature","geometry":{"type":"Point","coordinates":[144.9638295,-37.81344503]},"properties":{"property_id":101194,"clue_small_area":"Melbourne (CBD)","trading_name":"Mural Hall","census_year":2016,"longitude":144.9638295,"latitude":-37.81344503,"street_address":"314-336 Bourke Street","number_of_patrons":900,"block_id":55,"base_property_id":101194},"id":"com_clue_bar_tavern_pub_patron_capacity_2016.fid--2ea3ac96_163341f620f_-3b47"},{"type":"Feature","geometry":{"type":"Point","coordinates":[144.9647365,-37.81230108]},"properties":{"property_id":109292,"clue_small_area":"Melbourne (CBD)","trading_name":"The Lounge","census_year":2016,"longitude":144.9647365,"latitude":-37.81230108,"street_address":"243-249 Swanston Street","number_of_patrons":212,"block_id":65,"base_property_id":109292},"id":"com_clue_bar_tavern_pub_patron_capacity_2016.fid--2ea3ac96_163341f620f_-3b46"},{"type":"Feature","geometry":{"type":"Point","coordinates":[144.9649993,-37.81309229]},"properties":{"property_id":109284,"clue_small_area":"Melbourne (CBD)","trading_name":"Cocoon Bar","census_year":2016,"longitude":144.9649993,"latitude":-37.81309229,"street_address":"191-205 Swanston Street","number_of_patrons":200,"block_id":55,"base_property_id":109284},"id":"com_clue_bar_tavern_pub_patron_capacity_2016.fid--2ea3ac96_163341f620f_-3b45"},{"type":"Feature","geometry":{"type":"Point","coordinates":[144.9649993,-37.81309229]},"properties":{"property_id":109284,"clue_small_area":"Melbourne (CBD)","trading_name":"Black Opal","census_year":2016,"longitude":144.9649993,"latitude":-37.81309229,"street_address":"191-205 Swanston Street","number_of_patrons":200,"block_id":55,"base_property_id":109284},"id":"com_clue_bar_tavern_pub_patron_capacity_2016.fid--2ea3ac96_163341f620f_-3b44"},{"type":"Feature","geometry":{"type":"Point","coordinates":[144.9608283,-37.81778076]},"properties":{"property_id":106436,"clue_small_area":"Melbourne (CBD)","trading_name":"R2 Restaurant & Bar","census_year":2016,"longitude":144.9608283,"latitude":-37.81778076,"street_address":"54-60 Market Street","number_of_patrons":370,"block_id":23,"base_property_id":106436},"id":"com_clue_bar_tavern_pub_patron_capacity_2016.fid--2ea3ac96_163341f620f_-3b43"},{"type":"Feature","geometry":{"type":"Point","coordinates":[144.9630189,-37.81073331]},"properties":{"property_id":105746,"clue_small_area":"Melbourne (CBD)","trading_name":"Melbourne Central Lion Hotel","census_year":2016,"longitude":144.9630189,"latitude":-37.81073331,"street_address":"183-265 La Trobe Street","number_of_patrons":550,"block_id":85,"base_property_id":105746},"id":"com_clue_bar_tavern_pub_patron_capacity_2016.fid--2ea3ac96_163341f620f_-3b42"},{"type":"Feature","geometry":{"type":"Point","coordinates":[144.9630189,-37.81073331]},"properties":{"property_id":105746,"clue_small_area":"Melbourne (CBD)","trading_name":"Strike Melbourne Central","census_year":2016,"longitude":144.9630189,"latitude":-37.81073331,"street_address":"183-265 La Trobe Street","number_of_patrons":760,"block_id":85,"base_property_id":105746},"id":"com_clue_bar_tavern_pub_patron_capacity_2016.fid--2ea3ac96_163341f620f_-3b41"},{"type":"Feature","geometry":{"type":"Point","coordinates":[144.9630189,-37.81073331]},"properties":{"property_id":105746,"clue_small_area":"Melbourne (CBD)","trading_name":"Hush Bar @ Melbourne Central","census_year":2016,"longitude":144.9630189,"latitude":-37.81073331,"street_address":"183-265 La Trobe Street","number_of_patrons":200,"block_id":85,"base_property_id":105746},"id":"com_clue_bar_tavern_pub_patron_capacity_2016.fid--2ea3ac96_163341f620f_-3b40"},{"type":"Feature","geometry":{"type":"Point","coordinates":[144.9630189,-37.81073331]},"properties":{"property_id":105746,"clue_small_area":"Melbourne (CBD)","trading_name":"Hoyts","census_year":2016,"longitude":144.9630189,"latitude":-37.81073331,"street_address":"183-265 La Trobe Street","number_of_patrons":300,"block_id":85,"base_property_id":105746},"id":"com_clue_bar_tavern_pub_patron_capacity_2016.fid--2ea3ac96_163341f620f_-3b3f"},{"type":"Feature","geometry":{"type":"Point","coordinates":[144.9657034,-37.810658]},"properties":{"property_id":589841,"clue_small_area":"Melbourne (CBD)","trading_name":"Idarts Hive","census_year":2016,"longitude":144.9657034,"latitude":-37.810658,"street_address":"221 Little Lonsdale Street","number_of_patrons":100,"block_id":76,"base_property_id":105749},"id":"com_clue_bar_tavern_pub_patron_capacity_2016.fid--2ea3ac96_163341f620f_-3b3e"},{"type":"Feature","geometry":{"type":"Point","coordinates":[144.969548,-37.81207418]},"properties":{"property_id":101218,"clue_small_area":"Melbourne (CBD)","trading_name":"Fireflies Club","census_year":2016,"longitude":144.969548,"latitude":-37.81207418,"street_address":"118-122 Bourke Street","number_of_patrons":72,"block_id":57,"base_property_id":101218},"id":"com_clue_bar_tavern_pub_patron_capacity_2016.fid--2ea3ac96_163341f620f_-3b3d"},{"type":"Feature","geometry":{"type":"Point","coordinates":[144.9671568,-37.81384227]},"properties":{"property_id":105963,"clue_small_area":"Melbourne (CBD)","trading_name":"Hairy Canary","census_year":2016,"longitude":144.9671568,"latitude":-37.81384227,"street_address":"196-212 Little Collins Street","number_of_patrons":50,"block_id":46,"base_property_id":105963},"id":"com_clue_bar_tavern_pub_patron_capacity_2016.fid--2ea3ac96_163341f620f_-3b3c"},{"type":"Feature","geometry":{"type":"Point","coordinates":[144.9681892,-37.81367486]},"properties":{"property_id":108536,"clue_small_area":"Melbourne (CBD)","trading_name":"Portland Hotel","census_year":2016,"longitude":144.9681892,"latitude":-37.81367486,"street_address":"115-127 Russell Street","number_of_patrons":414,"block_id":46,"base_property_id":108536},"id":"com_clue_bar_tavern_pub_patron_capacity_2016.fid--2ea3ac96_163341f620f_-3b3b"},{"type":"Feature","geometry":{"type":"Point","coordinates":[144.9652504,-37.81199559]},"properties":{"property_id":109392,"clue_small_area":"Melbourne (CBD)","trading_name":"Mesa Verde","census_year":2016,"longitude":144.9652504,"latitude":-37.81199559,"street_address":"248-258 Swanston Street","number_of_patrons":175,"block_id":66,"base_property_id":109392},"id":"com_clue_bar_tavern_pub_patron_capacity_2016.fid--2ea3ac96_163341f620f_-3b3a"},{"type":"Feature","geometry":{"type":"Point","coordinates":[144.9662039,-37.81417648]},"properties":{"property_id":109413,"clue_small_area":"Melbourne (CBD)","trading_name":"Cabinet Bar ","census_year":2016,"longitude":144.9662039,"latitude":-37.81417648,"street_address":"146 Swanston Street","number_of_patrons":90,"block_id":46,"base_property_id":109413},"id":"com_clue_bar_tavern_pub_patron_capacity_2016.fid--2ea3ac96_163341f620f_-3b39"},{"type":"Feature","geometry":{"type":"Point","coordinates":[144.9632879,-37.81360425]},"properties":{"property_id":101193,"clue_small_area":"Melbourne (CBD)","trading_name":"Alto Events","census_year":2016,"longitude":144.9632879,"latitude":-37.81360425,"street_address":"338-352 Bourke Street","number_of_patrons":400,"block_id":55,"base_property_id":101193},"id":"com_clue_bar_tavern_pub_patron_capacity_2016.fid--2ea3ac96_163341f620f_-3b38"},{"type":"Feature","geometry":{"type":"Point","coordinates":[144.9604206,-37.81864585]},"properties":{"property_id":106435,"clue_small_area":"Melbourne (CBD)","trading_name":"The Trust","census_year":2016,"longitude":144.9604206,"latitude":-37.81864585,"street_address":"21-31 Market Street","number_of_patrons":350,"block_id":13,"base_property_id":106435},"id":"com_clue_bar_tavern_pub_patron_capacity_2016.fid--2ea3ac96_163341f620f_-3b37"},{"type":"Feature","geometry":{"type":"Point","coordinates":[144.9652914,-37.81552514]},"properties":{"property_id":558610,"clue_small_area":"Melbourne (CBD)","trading_name":"The Butterfly Club","census_year":2016,"longitude":144.9652914,"latitude":-37.81552514,"street_address":"256 Collins Street","number_of_patrons":190,"block_id":35,"base_property_id":558610},"id":"com_clue_bar_tavern_pub_patron_capacity_2016.fid--2ea3ac96_163341f620f_-3b36"},{"type":"Feature","geometry":{"type":"Point","coordinates":[144.9653899,-37.81176167]},"properties":{"property_id":109436,"clue_small_area":"Melbourne (CBD)","trading_name":"Section 8 Bar","census_year":2016,"longitude":144.9653899,"latitude":-37.81176167,"street_address":"27-29 Tattersalls Lane","number_of_patrons":100,"block_id":66,"base_property_id":109436},"id":"com_clue_bar_tavern_pub_patron_capacity_2016.fid--2ea3ac96_163341f620f_-3b35"},{"type":"Feature","geometry":{"type":"Point","coordinates":[144.9652504,-37.81199559]},"properties":{"property_id":109392,"clue_small_area":"Melbourne (CBD)","trading_name":"The Toff In Town","census_year":2016,"longitude":144.9652504,"latitude":-37.81199559,"street_address":"248-258 Swanston Street","number_of_patrons":342,"block_id":66,"base_property_id":109392},"id":"com_clue_bar_tavern_pub_patron_capacity_2016.fid--2ea3ac96_163341f620f_-3b34"},{"type":"Feature","geometry":{"type":"Point","coordinates":[144.9546987,-37.81533836]},"properties":{"property_id":105858,"clue_small_area":"Melbourne (CBD)","trading_name":"Sorry Grandma","census_year":2016,"longitude":144.9546987,"latitude":-37.81533836,"street_address":"590-592 Little Bourke Street","number_of_patrons":700,"block_id":61,"base_property_id":105858},"id":"com_clue_bar_tavern_pub_patron_capacity_2016.fid--2ea3ac96_163341f620f_-3b33"},{"type":"Feature","geometry":{"type":"Point","coordinates":[144.9652504,-37.81199559]},"properties":{"property_id":109392,"clue_small_area":"Melbourne (CBD)","trading_name":"Rooftop Cinema & Bar","census_year":2016,"longitude":144.9652504,"latitude":-37.81199559,"street_address":"248-258 Swanston Street","number_of_patrons":200,"block_id":66,"base_property_id":109392},"id":"com_clue_bar_tavern_pub_patron_capacity_2016.fid--2ea3ac96_163341f620f_-3b32"},{"type":"Feature","geometry":{"type":"Point","coordinates":[144.9577148,-37.81977635]},"properties":{"property_id":105401,"clue_small_area":"Melbourne (CBD)","trading_name":"Spearmint Rhino Gentlemen's Club","census_year":2016,"longitude":144.9577148,"latitude":-37.81977635,"street_address":"14-20 King Street","number_of_patrons":660,"block_id":12,"base_property_id":105401},"id":"com_clue_bar_tavern_pub_patron_capacity_2016.fid--2ea3ac96_163341f620f_-3b31"},{"type":"Feature","geometry":{"type":"Point","coordinates":[144.9657034,-37.810658]},"properties":{"property_id":589841,"clue_small_area":"Melbourne (CBD)","trading_name":"Father's Office","census_year":2016,"longitude":144.9657034,"latitude":-37.810658,"street_address":"221 Little Lonsdale Street","number_of_patrons":370,"block_id":76,"base_property_id":105749},"id":"com_clue_bar_tavern_pub_patron_capacity_2016.fid--2ea3ac96_163341f620f_-3b30"},{"type":"Feature","geometry":{"type":"Point","coordinates":[144.9630189,-37.81073331]},"properties":{"property_id":105746,"clue_small_area":"Melbourne (CBD)","trading_name":"Equinox Bar Restaurant","census_year":2016,"longitude":144.9630189,"latitude":-37.81073331,"street_address":"183-265 La Trobe Street","number_of_patrons":80,"block_id":85,"base_property_id":105746},"id":"com_clue_bar_tavern_pub_patron_capacity_2016.fid--2ea3ac96_163341f620f_-3b2f"},{"type":"Feature","geometry":{"type":"Point","coordinates":[144.9631276,-37.81292437]},"properties":{"property_id":105875,"clue_small_area":"Melbourne (CBD)","trading_name":"Penny Blue","census_year":2016,"longitude":144.9631276,"latitude":-37.81292437,"street_address":"318-322 Little Bourke Street","number_of_patrons":85,"block_id":65,"base_property_id":105875},"id":"com_clue_bar_tavern_pub_patron_capacity_2016.fid--2ea3ac96_163341f620f_-3b2e"},{"type":"Feature","geometry":{"type":"Point","coordinates":[144.965378,-37.81159495]},"properties":{"property_id":105695,"clue_small_area":"Melbourne (CBD)","trading_name":"Ferdydurke","census_year":2016,"longitude":144.965378,"latitude":-37.81159495,"street_address":"239 Lonsdale Street","number_of_patrons":100,"block_id":66,"base_property_id":105695},"id":"com_clue_bar_tavern_pub_patron_capacity_2016.fid--2ea3ac96_163341f620f_-3b2d"},{"type":"Feature","geometry":{"type":"Point","coordinates":[144.959964,-37.81269018]},"properties":{"property_id":108103,"clue_small_area":"Melbourne (CBD)","trading_name":"Bar 420","census_year":2016,"longitude":144.959964,"latitude":-37.81269018,"street_address":"244-250 Queen Street","number_of_patrons":200,"block_id":74,"base_property_id":108103},"id":"com_clue_bar_tavern_pub_patron_capacity_2016.fid--2ea3ac96_163341f620f_-3b2c"},{"type":"Feature","geometry":{"type":"Point","coordinates":[144.9641938,-37.81107765]},"properties":{"property_id":109304,"clue_small_area":"Melbourne (CBD)","trading_name":"Sahara Restaurant","census_year":2016,"longitude":144.9641938,"latitude":-37.81107765,"street_address":"301-303 Swanston Street","number_of_patrons":140,"block_id":85,"base_property_id":109304},"id":"com_clue_bar_tavern_pub_patron_capacity_2016.fid--2ea3ac96_163341f620f_-3b2b"},{"type":"Feature","geometry":{"type":"Point","coordinates":[144.9639703,-37.81130304]},"properties":{"property_id":102597,"clue_small_area":"Melbourne (CBD)","trading_name":"Baroq House","census_year":2016,"longitude":144.9639703,"latitude":-37.81130304,"street_address":"2-20 Drewery Place","number_of_patrons":303,"block_id":85,"base_property_id":102597},"id":"com_clue_bar_tavern_pub_patron_capacity_2016.fid--2ea3ac96_163341f620f_-3b2a"},{"type":"Feature","geometry":{"type":"Point","coordinates":[144.9674275,-37.81355434]},"properties":{"property_id":111394,"clue_small_area":"Melbourne (CBD)","trading_name":"Bar Ampere","census_year":2016,"longitude":144.9674275,"latitude":-37.81355434,"street_address":"16-30 Russell Place","number_of_patrons":60,"block_id":46,"base_property_id":111394},"id":"com_clue_bar_tavern_pub_patron_capacity_2016.fid--2ea3ac96_163341f620f_-3b29"},{"type":"Feature","geometry":{"type":"Point","coordinates":[144.9645574,-37.81567229]},"properties":{"property_id":102141,"clue_small_area":"Melbourne (CBD)","trading_name":"The Charles Dickens Tavern","census_year":2016,"longitude":144.9645574,"latitude":-37.81567229,"street_address":"280-292 Collins Street","number_of_patrons":450,"block_id":35,"base_property_id":102141},"id":"com_clue_bar_tavern_pub_patron_capacity_2016.fid--2ea3ac96_163341f620f_-3b28"},{"type":"Feature","geometry":{"type":"Point","coordinates":[144.9676452,-37.81320485]},"properties":{"property_id":101130,"clue_small_area":"Melbourne (CBD)","trading_name":"The Carlton Hotel","census_year":2016,"longitude":144.9676452,"latitude":-37.81320485,"street_address":"193-199 Bourke Street","number_of_patrons":366,"block_id":46,"base_property_id":101130},"id":"com_clue_bar_tavern_pub_patron_capacity_2016.fid--2ea3ac96_163341f620f_-3b27"},{"type":"Feature","geometry":{"type":"Point","coordinates":[144.9618462,-37.81381239]},"properties":{"property_id":109954,"clue_small_area":"Melbourne (CBD)","trading_name":"Murmur","census_year":2016,"longitude":144.9618462,"latitude":-37.81381239,"street_address":"15-19 Warburton Lane","number_of_patrons":50,"block_id":54,"base_property_id":109954},"id":"com_clue_bar_tavern_pub_patron_capacity_2016.fid--2ea3ac96_163341f620f_-3b26"},{"type":"Feature","geometry":{"type":"Point","coordinates":[144.9638158,-37.81135]},"properties":{"property_id":102596,"clue_small_area":"Melbourne (CBD)","trading_name":"Sister Bellas","census_year":2016,"longitude":144.9638158,"latitude":-37.81135,"street_address":"22 Drewery Place","number_of_patrons":80,"block_id":85,"base_property_id":102596},"id":"com_clue_bar_tavern_pub_patron_capacity_2016.fid--2ea3ac96_163341f620f_-3b25"},{"type":"Feature","geometry":{"type":"Point","coordinates":[144.9699175,-37.81784465]},"properties":{"property_id":578324,"clue_small_area":"Melbourne (CBD)","trading_name":"Transport Hotel","census_year":2016,"longitude":144.9699175,"latitude":-37.81784465,"street_address":"2 Swanston Street","number_of_patrons":600,"block_id":6,"base_property_id":573333},"id":"com_clue_bar_tavern_pub_patron_capacity_2016.fid--2ea3ac96_163341f620f_-3b24"},{"type":"Feature","geometry":{"type":"Point","coordinates":[144.9699175,-37.81784465]},"properties":{"property_id":578324,"clue_small_area":"Melbourne (CBD)","trading_name":"Transit Rooftop Bar","census_year":2016,"longitude":144.9699175,"latitude":-37.81784465,"street_address":"2 Swanston Street","number_of_patrons":200,"block_id":6,"base_property_id":573333},"id":"com_clue_bar_tavern_pub_patron_capacity_2016.fid--2ea3ac96_163341f620f_-3b23"},{"type":"Feature","geometry":{"type":"Point","coordinates":[144.9323559,-37.78860982]},"properties":{"property_id":616160,"clue_small_area":"Kensington","trading_name":"The Quiet Man Irish Pub","census_year":2016,"longitude":144.9323559,"latitude":-37.78860982,"street_address":"265-271 Racecourse Road","number_of_patrons":400,"block_id":2530,"base_property_id":616160},"id":"com_clue_bar_tavern_pub_patron_capacity_2016.fid--2ea3ac96_163341f620f_-3b22"},{"type":"Feature","geometry":{"type":"Point","coordinates":[144.9630575,-37.81814578]},"properties":{"property_id":101099,"clue_small_area":"Melbourne (CBD)","trading_name":"Bond Melbourne","census_year":2016,"longitude":144.9630575,"latitude":-37.81814578,"street_address":"16-26 Bond Street","number_of_patrons":500,"block_id":14,"base_property_id":101099},"id":"com_clue_bar_tavern_pub_patron_capacity_2016.fid--2ea3ac96_163341f620f_-3b21"},{"type":"Feature","geometry":{"type":"Point","coordinates":[144.9652504,-37.81199559]},"properties":{"property_id":109392,"clue_small_area":"Melbourne (CBD)","trading_name":"Cookie","census_year":2016,"longitude":144.9652504,"latitude":-37.81199559,"street_address":"248-258 Swanston Street","number_of_patrons":300,"block_id":66,"base_property_id":109392},"id":"com_clue_bar_tavern_pub_patron_capacity_2016.fid--2ea3ac96_163341f620f_-3b20"},{"type":"Feature","geometry":{"type":"Point","coordinates":[144.9640121,-37.81488174]},"properties":{"property_id":105960,"clue_small_area":"Melbourne (CBD)","trading_name":"New Guernica","census_year":2016,"longitude":144.9640121,"latitude":-37.81488174,"street_address":"318-322 Little Collins Street","number_of_patrons":380,"block_id":45,"base_property_id":105960},"id":"com_clue_bar_tavern_pub_patron_capacity_2016.fid--2ea3ac96_163341f620f_-3b1f"},{"type":"Feature","geometry":{"type":"Point","coordinates":[144.9565837,-37.81292397]},"properties":{"property_id":110106,"clue_small_area":"Melbourne (CBD)","trading_name":"Metropolitan Hotel","census_year":2016,"longitude":144.9565837,"latitude":-37.81292397,"street_address":"263-267 William Street","number_of_patrons":300,"block_id":72,"base_property_id":110106},"id":"com_clue_bar_tavern_pub_patron_capacity_2016.fid--2ea3ac96_163341f620f_-3b1e"},{"type":"Feature","geometry":{"type":"Point","coordinates":[144.9668768,-37.81259409]},"properties":{"property_id":101202,"clue_small_area":"Melbourne (CBD)","trading_name":"Xiang Club","census_year":2016,"longitude":144.9668768,"latitude":-37.81259409,"street_address":"206-218 Bourke Street","number_of_patrons":150,"block_id":56,"base_property_id":101202},"id":"com_clue_bar_tavern_pub_patron_capacity_2016.fid--2ea3ac96_163341f620f_-3b1d"},{"type":"Feature","geometry":{"type":"Point","coordinates":[144.9614648,-37.81291055]},"properties":{"property_id":105704,"clue_small_area":"Melbourne (CBD)","trading_name":"Trapt Bar & Escape Rooms","census_year":2016,"longitude":144.9614648,"latitude":-37.81291055,"street_address":"377-381 Lonsdale Street","number_of_patrons":331,"block_id":64,"base_property_id":105704},"id":"com_clue_bar_tavern_pub_patron_capacity_2016.fid--2ea3ac96_163341f620f_-3b1c"},{"type":"Feature","geometry":{"type":"Point","coordinates":[144.9692478,-37.81598754]},"properties":{"property_id":108532,"clue_small_area":"Melbourne (CBD)","trading_name":"Whiskey Den ","census_year":2016,"longitude":144.9692478,"latitude":-37.81598754,"street_address":"27-37 Russell Street","number_of_patrons":40,"block_id":16,"base_property_id":108532},"id":"com_clue_bar_tavern_pub_patron_capacity_2016.fid--2ea3ac96_163341f620f_-3b1b"},{"type":"Feature","geometry":{"type":"Point","coordinates":[144.964608,-37.81805666]},"properties":{"property_id":103165,"clue_small_area":"Melbourne (CBD)","trading_name":"Dreams Gentlemen's Club","census_year":2016,"longitude":144.964608,"latitude":-37.81805666,"street_address":"1-5 Elizabeth Street","number_of_patrons":160,"block_id":14,"base_property_id":103165},"id":"com_clue_bar_tavern_pub_patron_capacity_2016.fid--2ea3ac96_163341f620f_-3b1a"},{"type":"Feature","geometry":{"type":"Point","coordinates":[144.9638507,-37.81763918]},"properties":{"property_id":103946,"clue_small_area":"Melbourne (CBD)","trading_name":"Randy Dragon","census_year":2016,"longitude":144.9638507,"latitude":-37.81763918,"street_address":"313-315 Flinders Lane","number_of_patrons":100,"block_id":14,"base_property_id":103946},"id":"com_clue_bar_tavern_pub_patron_capacity_2016.fid--2ea3ac96_163341f620f_-3b19"},{"type":"Feature","geometry":{"type":"Point","coordinates":[144.9606531,-37.81752882]},"properties":{"property_id":102099,"clue_small_area":"Melbourne (CBD)","trading_name":"Ms Collins","census_year":2016,"longitude":144.9606531,"latitude":-37.81752882,"street_address":"419-429 Collins Street","number_of_patrons":850,"block_id":23,"base_property_id":102099},"id":"com_clue_bar_tavern_pub_patron_capacity_2016.fid--2ea3ac96_163341f620f_-3b18"},{"type":"Feature","geometry":{"type":"Point","coordinates":[144.9662609,-37.8114331]},"properties":{"property_id":105691,"clue_small_area":"Melbourne (CBD)","trading_name":"Boilermaker House","census_year":2016,"longitude":144.9662609,"latitude":-37.8114331,"street_address":"209-211 Lonsdale Street","number_of_patrons":180,"block_id":66,"base_property_id":105691},"id":"com_clue_bar_tavern_pub_patron_capacity_2016.fid--2ea3ac96_163341f620f_-3b17"},{"type":"Feature","geometry":{"type":"Point","coordinates":[144.9673406,-37.81179179]},"properties":{"property_id":108547,"clue_small_area":"Melbourne (CBD)","trading_name":"Exford Hotel","census_year":2016,"longitude":144.9673406,"latitude":-37.81179179,"street_address":"199-203 Russell Street","number_of_patrons":300,"block_id":66,"base_property_id":108547},"id":"com_clue_bar_tavern_pub_patron_capacity_2016.fid--2ea3ac96_163341f620f_-3b16"},{"type":"Feature","geometry":{"type":"Point","coordinates":[144.9606805,-37.81213605]},"properties":{"property_id":104662,"clue_small_area":"Melbourne (CBD)","trading_name":"Nieuw Amsterdam","census_year":2016,"longitude":144.9606805,"latitude":-37.81213605,"street_address":"106-112 Hardware Street","number_of_patrons":200,"block_id":74,"base_property_id":104662},"id":"com_clue_bar_tavern_pub_patron_capacity_2016.fid--2ea3ac96_163341f620f_-3b15"},{"type":"Feature","geometry":{"type":"Point","coordinates":[144.9605086,-37.81081439]},"properties":{"property_id":105449,"clue_small_area":"Melbourne (CBD)","trading_name":"Burger Theory \/ The Hills Rooftop \/ The Tuxedo Cat","census_year":2016,"longitude":144.9605086,"latitude":-37.81081439,"street_address":"293-299 La Trobe Street","number_of_patrons":200,"block_id":84,"base_property_id":105449},"id":"com_clue_bar_tavern_pub_patron_capacity_2016.fid--2ea3ac96_163341f620f_-3b14"},{"type":"Feature","geometry":{"type":"Point","coordinates":[144.9676888,-37.81267583]},"properties":{"property_id":101207,"clue_small_area":"Melbourne (CBD)","trading_name":"Stars KTV and Lounge","census_year":2016,"longitude":144.9676888,"latitude":-37.81267583,"street_address":"184-186 Bourke Street","number_of_patrons":204,"block_id":56,"base_property_id":101207},"id":"com_clue_bar_tavern_pub_patron_capacity_2016.fid--2ea3ac96_163341f620f_-3b13"},{"type":"Feature","geometry":{"type":"Point","coordinates":[144.9690111,-37.81056538]},"properties":{"property_id":105675,"clue_small_area":"Melbourne (CBD)","trading_name":"Seamstress","census_year":2016,"longitude":144.9690111,"latitude":-37.81056538,"street_address":"113 Lonsdale Street","number_of_patrons":160,"block_id":67,"base_property_id":105675},"id":"com_clue_bar_tavern_pub_patron_capacity_2016.fid--2ea3ac96_163341f620f_-3b12"},{"type":"Feature","geometry":{"type":"Point","coordinates":[144.9591538,-37.80895967]},"properties":{"property_id":104085,"clue_small_area":"Melbourne (CBD)","trading_name":"Velvet Underground","census_year":2016,"longitude":144.9591538,"latitude":-37.80895967,"street_address":"167-175 Franklin Street","number_of_patrons":200,"block_id":104,"base_property_id":104085},"id":"com_clue_bar_tavern_pub_patron_capacity_2016.fid--2ea3ac96_163341f620f_-3b11"},{"type":"Feature","geometry":{"type":"Point","coordinates":[144.9660836,-37.80749583]},"properties":{"property_id":108561,"clue_small_area":"Melbourne (CBD)","trading_name":"Blue Moon Bar","census_year":2016,"longitude":144.9660836,"latitude":-37.80749583,"street_address":"380-388 Russell Street","number_of_patrons":170,"block_id":107,"base_property_id":108561},"id":"com_clue_bar_tavern_pub_patron_capacity_2016.fid--2ea3ac96_163341f620f_-3b10"},{"type":"Feature","geometry":{"type":"Point","coordinates":[144.9626932,-37.80826292]},"properties":{"property_id":109318,"clue_small_area":"Melbourne (CBD)","trading_name":"The Oxford Scholar Hotel","census_year":2016,"longitude":144.9626932,"latitude":-37.80826292,"street_address":"427-457 Swanston Street","number_of_patrons":486,"block_id":105,"base_property_id":109318},"id":"com_clue_bar_tavern_pub_patron_capacity_2016.fid--2ea3ac96_163341f620f_-3b0f"},{"type":"Feature","geometry":{"type":"Point","coordinates":[144.9702485,-37.81191058]},"properties":{"property_id":101221,"clue_small_area":"Melbourne (CBD)","trading_name":"The Elephant and Wheelbarrow","census_year":2016,"longitude":144.9702485,"latitude":-37.81191058,"street_address":"94-96 Bourke Street","number_of_patrons":450,"block_id":57,"base_property_id":101221},"id":"com_clue_bar_tavern_pub_patron_capacity_2016.fid--2ea3ac96_163341f620f_-3b0e"},{"type":"Feature","geometry":{"type":"Point","coordinates":[144.9694031,-37.81175137]},"properties":{"property_id":106433,"clue_small_area":"Melbourne (CBD)","trading_name":"Ding Dong Lounge","census_year":2016,"longitude":144.9694031,"latitude":-37.81175137,"street_address":"18-24 Market Lane","number_of_patrons":300,"block_id":57,"base_property_id":106433},"id":"com_clue_bar_tavern_pub_patron_capacity_2016.fid--2ea3ac96_163341f620f_-3b0d"},{"type":"Feature","geometry":{"type":"Point","coordinates":[144.9692645,-37.81207094]},"properties":{"property_id":101217,"clue_small_area":"Melbourne (CBD)","trading_name":"Welcome Stranger","census_year":2016,"longitude":144.9692645,"latitude":-37.81207094,"street_address":"124-128 Bourke Street","number_of_patrons":350,"block_id":57,"base_property_id":101217},"id":"com_clue_bar_tavern_pub_patron_capacity_2016.fid--2ea3ac96_163341f620f_-3b0c"},{"type":"Feature","geometry":{"type":"Point","coordinates":[144.9685359,-37.81206119]},"properties":{"property_id":101212,"clue_small_area":"Melbourne (CBD)","trading_name":"Charltons Entertainment Complex \/ Roxanne Bar","census_year":2016,"longitude":144.9685359,"latitude":-37.81206119,"street_address":"152-158 Bourke Street","number_of_patrons":1500,"block_id":57,"base_property_id":101212},"id":"com_clue_bar_tavern_pub_patron_capacity_2016.fid--2ea3ac96_163341f620f_-3b0b"},{"type":"Feature","geometry":{"type":"Point","coordinates":[144.9676444,-37.81098272]},"properties":{"property_id":108581,"clue_small_area":"Melbourne (CBD)","trading_name":"Mai Tai Restaurant","census_year":2016,"longitude":144.9676444,"latitude":-37.81098272,"street_address":"226-236 Russell Street","number_of_patrons":170,"block_id":67,"base_property_id":108581},"id":"com_clue_bar_tavern_pub_patron_capacity_2016.fid--2ea3ac96_163341f620f_-3b0a"},{"type":"Feature","geometry":{"type":"Point","coordinates":[144.9605354,-37.8162542]},"properties":{"property_id":105933,"clue_small_area":"Melbourne (CBD)","trading_name":"The Irish Times","census_year":2016,"longitude":144.9605354,"latitude":-37.8162542,"street_address":"425-427 Little Collins Street","number_of_patrons":170,"block_id":33,"base_property_id":105933},"id":"com_clue_bar_tavern_pub_patron_capacity_2016.fid--2ea3ac96_163341f620f_-3b09"},{"type":"Feature","geometry":{"type":"Point","coordinates":[144.9582309,-37.81492637]},"properties":{"property_id":110145,"clue_small_area":"Melbourne (CBD)","trading_name":"Lavita Cafe On William ","census_year":2016,"longitude":144.9582309,"latitude":-37.81492637,"street_address":"170-176 William Street","number_of_patrons":50,"block_id":53,"base_property_id":110145},"id":"com_clue_bar_tavern_pub_patron_capacity_2016.fid--2ea3ac96_163341f620f_-3b08"},{"type":"Feature","geometry":{"type":"Point","coordinates":[144.9676479,-37.81246709]},"properties":{"property_id":108538,"clue_small_area":"Melbourne (CBD)","trading_name":"Eden Bar","census_year":2016,"longitude":144.9676479,"latitude":-37.81246709,"street_address":"163-169 Russell Street","number_of_patrons":350,"block_id":56,"base_property_id":108538},"id":"com_clue_bar_tavern_pub_patron_capacity_2016.fid--2ea3ac96_163341f620f_-3b07"},{"type":"Feature","geometry":{"type":"Point","coordinates":[144.9632258,-37.81784765]},"properties":{"property_id":103950,"clue_small_area":"Melbourne (CBD)","trading_name":"Bartronica","census_year":2016,"longitude":144.9632258,"latitude":-37.81784765,"street_address":"335-339 Flinders Lane","number_of_patrons":200,"block_id":14,"base_property_id":103950},"id":"com_clue_bar_tavern_pub_patron_capacity_2016.fid--2ea3ac96_163341f620f_-3b06"},{"type":"Feature","geometry":{"type":"Point","coordinates":[144.9652979,-37.81724201]},"properties":{"property_id":103944,"clue_small_area":"Melbourne (CBD)","trading_name":"The Mill House Bar","census_year":2016,"longitude":144.9652979,"latitude":-37.81724201,"street_address":"277-279 Flinders Lane","number_of_patrons":400,"block_id":15,"base_property_id":103944},"id":"com_clue_bar_tavern_pub_patron_capacity_2016.fid--2ea3ac96_163341f620f_-3b05"},{"type":"Feature","geometry":{"type":"Point","coordinates":[144.9610348,-37.81403196]},"properties":{"property_id":105852,"clue_small_area":"Melbourne (CBD)","trading_name":"The Apartment Restaurant Club Lounge","census_year":2016,"longitude":144.9610348,"latitude":-37.81403196,"street_address":"401-405 Little Bourke Street","number_of_patrons":250,"block_id":54,"base_property_id":105852},"id":"com_clue_bar_tavern_pub_patron_capacity_2016.fid--2ea3ac96_163341f620f_-3b04"},{"type":"Feature","geometry":{"type":"Point","coordinates":[144.965603,-37.81213633]},"properties":{"property_id":105878,"clue_small_area":"Melbourne (CBD)","trading_name":"Shanghai Club","census_year":2016,"longitude":144.965603,"latitude":-37.81213633,"street_address":"242-244 Little Bourke Street","number_of_patrons":209,"block_id":66,"base_property_id":105878},"id":"com_clue_bar_tavern_pub_patron_capacity_2016.fid--2ea3ac96_163341f620f_-3b03"},{"type":"Feature","geometry":{"type":"Point","coordinates":[144.96853,-37.81098009]},"properties":{"property_id":105679,"clue_small_area":"Melbourne (CBD)","trading_name":"Athens Business Club","census_year":2016,"longitude":144.96853,"latitude":-37.81098009,"street_address":"131-137 Lonsdale Street","number_of_patrons":30,"block_id":67,"base_property_id":105679},"id":"com_clue_bar_tavern_pub_patron_capacity_2016.fid--2ea3ac96_163341f620f_-3b02"},{"type":"Feature","geometry":{"type":"Point","coordinates":[144.9698467,-37.81516811]},"properties":{"property_id":541562,"clue_small_area":"Melbourne (CBD)","trading_name":"RU-CO","census_year":2016,"longitude":144.9698467,"latitude":-37.81516811,"street_address":"121-131 Collins Street","number_of_patrons":400,"block_id":27,"base_property_id":102071},"id":"com_clue_bar_tavern_pub_patron_capacity_2016.fid--2ea3ac96_163341f620f_-3b01"},{"type":"Feature","geometry":{"type":"Point","coordinates":[144.9698467,-37.81516811]},"properties":{"property_id":597183,"clue_small_area":"Melbourne (CBD)","trading_name":"Spice Market","census_year":2016,"longitude":144.9698467,"latitude":-37.81516811,"street_address":"121-131 Collins Street","number_of_patrons":600,"block_id":27,"base_property_id":102071},"id":"com_clue_bar_tavern_pub_patron_capacity_2016.fid--2ea3ac96_163341f620f_-3b00"},{"type":"Feature","geometry":{"type":"Point","coordinates":[144.9690881,-37.81206249]},"properties":{"property_id":101216,"clue_small_area":"Melbourne (CBD)","trading_name":"The Croft Institute","census_year":2016,"longitude":144.9690881,"latitude":-37.81206249,"street_address":"21-25 Croft Alley","number_of_patrons":250,"block_id":57,"base_property_id":101216},"id":"com_clue_bar_tavern_pub_patron_capacity_2016.fid--2ea3ac96_163341f620f_-3aff"},{"type":"Feature","geometry":{"type":"Point","coordinates":[144.9687387,-37.81235798]},"properties":{"property_id":101214,"clue_small_area":"Melbourne (CBD)","trading_name":"FM Karaoke Bar","census_year":2016,"longitude":144.9687387,"latitude":-37.81235798,"street_address":"146-150 Bourke Street","number_of_patrons":100,"block_id":57,"base_property_id":101214},"id":"com_clue_bar_tavern_pub_patron_capacity_2016.fid--2ea3ac96_163341f620f_-3afe"},{"type":"Feature","geometry":{"type":"Point","coordinates":[144.9583711,-37.80792152]},"properties":{"property_id":109493,"clue_small_area":"Melbourne (CBD)","trading_name":"The Mercant Cross Hotel \/ Fancy Hanks Bar-B-Que","census_year":2016,"longitude":144.9583711,"latitude":-37.80792152,"street_address":"143-151 Therry Street","number_of_patrons":1081,"block_id":114,"base_property_id":109493},"id":"com_clue_bar_tavern_pub_patron_capacity_2016.fid--2ea3ac96_163341f620f_-3afd"},{"type":"Feature","geometry":{"type":"Point","coordinates":[144.967558,-37.80889245]},"properties":{"property_id":101023,"clue_small_area":"Melbourne (CBD)","trading_name":"Bennetts Lane Jazz Club","census_year":2016,"longitude":144.967558,"latitude":-37.80889245,"street_address":"25 Bennetts Lane","number_of_patrons":300,"block_id":87,"base_property_id":101023},"id":"com_clue_bar_tavern_pub_patron_capacity_2016.fid--2ea3ac96_163341f620f_-3afc"},{"type":"Feature","geometry":{"type":"Point","coordinates":[144.960326,-37.8159076]},"properties":{"property_id":105954,"clue_small_area":"Melbourne (CBD)","trading_name":"Little Red Pocket","census_year":2016,"longitude":144.960326,"latitude":-37.8159076,"street_address":"422-428 Little Collins Street","number_of_patrons":200,"block_id":43,"base_property_id":105954},"id":"com_clue_bar_tavern_pub_patron_capacity_2016.fid--2ea3ac96_163341f620f_-3afb"},{"type":"Feature","geometry":{"type":"Point","coordinates":[144.9597229,-37.81392392]},"properties":{"property_id":105867,"clue_small_area":"Melbourne (CBD)","trading_name":"DANSK Restaurant","census_year":2016,"longitude":144.9597229,"latitude":-37.81392392,"street_address":"428-432 Little Bourke Street","number_of_patrons":100,"block_id":63,"base_property_id":105867},"id":"com_clue_bar_tavern_pub_patron_capacity_2016.fid--2ea3ac96_163341f620f_-3afa"},{"type":"Feature","geometry":{"type":"Point","coordinates":[144.9603411,-37.81187439]},"properties":{"property_id":106017,"clue_small_area":"Melbourne (CBD)","trading_name":"La La Land","census_year":2016,"longitude":144.9603411,"latitude":-37.81187439,"street_address":"391-393 Little Lonsdale Street","number_of_patrons":175,"block_id":74,"base_property_id":106017},"id":"com_clue_bar_tavern_pub_patron_capacity_2016.fid--2ea3ac96_163341f620f_-3af9"},{"type":"Feature","geometry":{"type":"Point","coordinates":[144.9668768,-37.81259409]},"properties":{"property_id":101202,"clue_small_area":"Melbourne (CBD)","trading_name":"Rainbow Karaoke","census_year":2016,"longitude":144.9668768,"latitude":-37.81259409,"street_address":"206-218 Bourke Street","number_of_patrons":400,"block_id":56,"base_property_id":101202},"id":"com_clue_bar_tavern_pub_patron_capacity_2016.fid--2ea3ac96_163341f620f_-3af8"},{"type":"Feature","geometry":{"type":"Point","coordinates":[144.9668768,-37.81259409]},"properties":{"property_id":101202,"clue_small_area":"Melbourne (CBD)","trading_name":"VS Sports Bar","census_year":2016,"longitude":144.9668768,"latitude":-37.81259409,"street_address":"206-218 Bourke Street","number_of_patrons":80,"block_id":56,"base_property_id":101202},"id":"com_clue_bar_tavern_pub_patron_capacity_2016.fid--2ea3ac96_163341f620f_-3af7"},{"type":"Feature","geometry":{"type":"Point","coordinates":[144.9699175,-37.81784465]},"properties":{"property_id":578327,"clue_small_area":"Melbourne (CBD)","trading_name":"Zinc at Federation Square","census_year":2016,"longitude":144.9699175,"latitude":-37.81784465,"street_address":"2 Swanston Street","number_of_patrons":1000,"block_id":6,"base_property_id":573333},"id":"com_clue_bar_tavern_pub_patron_capacity_2016.fid--2ea3ac96_163341f620f_-3af6"},{"type":"Feature","geometry":{"type":"Point","coordinates":[144.9553465,-37.82072034]},"properties":{"property_id":103984,"clue_small_area":"Melbourne (CBD)","trading_name":"UBar","census_year":2016,"longitude":144.9553465,"latitude":-37.82072034,"street_address":"566-580 Flinders Street","number_of_patrons":98,"block_id":11,"base_property_id":103984},"id":"com_clue_bar_tavern_pub_patron_capacity_2016.fid--2ea3ac96_163341f620f_-3af5"},{"type":"Feature","geometry":{"type":"Point","coordinates":[144.9597623,-37.81703239]},"properties":{"property_id":102124,"clue_small_area":"Melbourne (CBD)","trading_name":"The Mug House","census_year":2016,"longitude":144.9597623,"latitude":-37.81703239,"street_address":"430-442 Collins Street","number_of_patrons":80,"block_id":33,"base_property_id":102124},"id":"com_clue_bar_tavern_pub_patron_capacity_2016.fid--2ea3ac96_163341f620f_-3af4"},{"type":"Feature","geometry":{"type":"Point","coordinates":[144.9286331,-37.79404162]},"properties":{"property_id":614830,"clue_small_area":"Kensington","trading_name":"Lost and Found","census_year":2016,"longitude":144.9286331,"latitude":-37.79404162,"street_address":"524 Macaulay Road","number_of_patrons":40,"block_id":2523,"base_property_id":614830},"id":"com_clue_bar_tavern_pub_patron_capacity_2016.fid--2ea3ac96_163341f620f_-3af3"},{"type":"Feature","geometry":{"type":"Point","coordinates":[144.9705847,-37.81393777]},"properties":{"property_id":102158,"clue_small_area":"Melbourne (CBD)","trading_name":"Ra","census_year":2016,"longitude":144.9705847,"latitude":-37.81393777,"street_address":"86-88 Collins Street","number_of_patrons":83,"block_id":37,"base_property_id":102158},"id":"com_clue_bar_tavern_pub_patron_capacity_2016.fid--2ea3ac96_163341f620f_-3af2"},{"type":"Feature","geometry":{"type":"Point","coordinates":[144.9689024,-37.8107614]},"properties":{"property_id":105677,"clue_small_area":"Melbourne (CBD)","trading_name":"The Key Club","census_year":2016,"longitude":144.9689024,"latitude":-37.8107614,"street_address":"117-121 Lonsdale Street","number_of_patrons":440,"block_id":67,"base_property_id":105677},"id":"com_clue_bar_tavern_pub_patron_capacity_2016.fid--2ea3ac96_163341f620f_-3af1"},{"type":"Feature","geometry":{"type":"Point","coordinates":[144.9608681,-37.81746814]},"properties":{"property_id":102098,"clue_small_area":"Melbourne (CBD)","trading_name":"The Sherlock Holmes Inn","census_year":2016,"longitude":144.9608681,"latitude":-37.81746814,"street_address":"415-417 Collins Street","number_of_patrons":131,"block_id":23,"base_property_id":102098},"id":"com_clue_bar_tavern_pub_patron_capacity_2016.fid--2ea3ac96_163341f620f_-3af0"},{"type":"Feature","geometry":{"type":"Point","coordinates":[144.9549691,-37.81538904]},"properties":{"property_id":105308,"clue_small_area":"Melbourne (CBD)","trading_name":"Bar Humbug","census_year":2016,"longitude":144.9549691,"latitude":-37.81538904,"street_address":"203-207 King Street","number_of_patrons":30,"block_id":61,"base_property_id":105308},"id":"com_clue_bar_tavern_pub_patron_capacity_2016.fid--2ea3ac96_163341f620f_-3aef"},{"type":"Feature","geometry":{"type":"Point","coordinates":[144.9544951,-37.81491898]},"properties":{"property_id":105716,"clue_small_area":"Melbourne (CBD)","trading_name":"The Men's Gallery","census_year":2016,"longitude":144.9544951,"latitude":-37.81491898,"street_address":"597-603 Lonsdale Street","number_of_patrons":675,"block_id":61,"base_property_id":105716},"id":"com_clue_bar_tavern_pub_patron_capacity_2016.fid--2ea3ac96_163341f620f_-3aee"},{"type":"Feature","geometry":{"type":"Point","coordinates":[144.9554836,-37.81521196]},"properties":{"property_id":105384,"clue_small_area":"Melbourne (CBD)","trading_name":"Great Western Hotel","census_year":2016,"longitude":144.9554836,"latitude":-37.81521196,"street_address":"204-208 King Street","number_of_patrons":390,"block_id":62,"base_property_id":105384},"id":"com_clue_bar_tavern_pub_patron_capacity_2016.fid--2ea3ac96_163341f620f_-3aed"},{"type":"Feature","geometry":{"type":"Point","coordinates":[144.957466,-37.81952934]},"properties":{"property_id":105399,"clue_small_area":"Melbourne (CBD)","trading_name":"Clique Bar","census_year":2016,"longitude":144.957466,"latitude":-37.81952934,"street_address":"26-32 King Street","number_of_patrons":222,"block_id":12,"base_property_id":105399},"id":"com_clue_bar_tavern_pub_patron_capacity_2016.fid--2ea3ac96_163341f620f_-3aec"},{"type":"Feature","geometry":{"type":"Point","coordinates":[144.9705847,-37.81393777]},"properties":{"property_id":102158,"clue_small_area":"Melbourne (CBD)","trading_name":"Collins Quarter ","census_year":2016,"longitude":144.9705847,"latitude":-37.81393777,"street_address":"86-88 Collins Street","number_of_patrons":290,"block_id":37,"base_property_id":102158},"id":"com_clue_bar_tavern_pub_patron_capacity_2016.fid--2ea3ac96_163341f620f_-3aeb"},{"type":"Feature","geometry":{"type":"Point","coordinates":[144.9645504,-37.80818365]},"properties":{"property_id":606638,"clue_small_area":"Melbourne (CBD)","trading_name":"Pearson and Murph'y Cafe","census_year":2016,"longitude":144.9645504,"latitude":-37.80818365,"street_address":"124 La Trobe Street","number_of_patrons":156,"block_id":96,"base_property_id":105490},"id":"com_clue_bar_tavern_pub_patron_capacity_2016.fid--2ea3ac96_163341f620f_-3aea"},{"type":"Feature","geometry":{"type":"Point","coordinates":[144.96859,-37.8091536]},"properties":{"property_id":106057,"clue_small_area":"Melbourne (CBD)","trading_name":"Troika Bar ","census_year":2016,"longitude":144.96859,"latitude":-37.8091536,"street_address":"106 Little Lonsdale Street","number_of_patrons":60,"block_id":87,"base_property_id":106057},"id":"com_clue_bar_tavern_pub_patron_capacity_2016.fid--2ea3ac96_163341f620f_-3ae9"},{"type":"Feature","geometry":{"type":"Point","coordinates":[144.9609695,-37.81637876]},"properties":{"property_id":108065,"clue_small_area":"Melbourne (CBD)","trading_name":"Decca Bar","census_year":2016,"longitude":144.9609695,"latitude":-37.81637876,"street_address":"93-95 Queen Street","number_of_patrons":167,"block_id":33,"base_property_id":108065},"id":"com_clue_bar_tavern_pub_patron_capacity_2016.fid--2ea3ac96_163341f620f_-3ae8"},{"type":"Feature","geometry":{"type":"Point","coordinates":[144.9705132,-37.81567009]},"properties":{"property_id":103925,"clue_small_area":"Melbourne (CBD)","trading_name":"Fashion Lounge","census_year":2016,"longitude":144.9705132,"latitude":-37.81567009,"street_address":"121-123 Flinders Lane","number_of_patrons":350,"block_id":17,"base_property_id":103925},"id":"com_clue_bar_tavern_pub_patron_capacity_2016.fid--2ea3ac96_163341f620f_-3ae7"},{"type":"Feature","geometry":{"type":"Point","coordinates":[144.9703998,-37.81568875]},"properties":{"property_id":103926,"clue_small_area":"Melbourne (CBD)","trading_name":"Gogo ","census_year":2016,"longitude":144.9703998,"latitude":-37.81568875,"street_address":"125-127 Flinders Lane","number_of_patrons":300,"block_id":17,"base_property_id":103926},"id":"com_clue_bar_tavern_pub_patron_capacity_2016.fid--2ea3ac96_163341f620f_-3ae6"},{"type":"Feature","geometry":{"type":"Point","coordinates":[144.9556244,-37.81551353]},"properties":{"property_id":592048,"clue_small_area":"Melbourne (CBD)","trading_name":"La Di Da","census_year":2016,"longitude":144.9556244,"latitude":-37.81551353,"street_address":"188-202 King Street","number_of_patrons":458,"block_id":52,"base_property_id":592048},"id":"com_clue_bar_tavern_pub_patron_capacity_2016.fid--2ea3ac96_163341f620f_-3ae5"},{"type":"Feature","geometry":{"type":"Point","coordinates":[144.9616126,-37.80752292]},"properties":{"property_id":104103,"clue_small_area":"Melbourne (CBD)","trading_name":"Captain Melville ","census_year":2016,"longitude":144.9616126,"latitude":-37.80752292,"street_address":"34-38 Franklin Street","number_of_patrons":355,"block_id":115,"base_property_id":104103},"id":"com_clue_bar_tavern_pub_patron_capacity_2016.fid--2ea3ac96_163341f620f_-3ae4"},{"type":"Feature","geometry":{"type":"Point","coordinates":[144.9692541,-37.81049305]},"properties":{"property_id":105673,"clue_small_area":"Melbourne (CBD)","trading_name":"Bomba Tapas Bar and Rooftop","census_year":2016,"longitude":144.9692541,"latitude":-37.81049305,"street_address":"103-105 Lonsdale Street","number_of_patrons":145,"block_id":67,"base_property_id":105673},"id":"com_clue_bar_tavern_pub_patron_capacity_2016.fid--2ea3ac96_163341f620f_-3ae3"},{"type":"Feature","geometry":{"type":"Point","coordinates":[144.9720472,-37.81193572]},"properties":{"property_id":101109,"clue_small_area":"Melbourne (CBD)","trading_name":"Spleen Central","census_year":2016,"longitude":144.9720472,"latitude":-37.81193572,"street_address":"39-43 Bourke Street","number_of_patrons":100,"block_id":48,"base_property_id":101109},"id":"com_clue_bar_tavern_pub_patron_capacity_2016.fid--2ea3ac96_163341f620f_-3ae2"},{"type":"Feature","geometry":{"type":"Point","coordinates":[144.9721078,-37.8121518]},"properties":{"property_id":503031,"clue_small_area":"Melbourne (CBD)","trading_name":"Loop Project Space & Bar","census_year":2016,"longitude":144.9721078,"latitude":-37.8121518,"street_address":"19-23 Meyers Place","number_of_patrons":152,"block_id":48,"base_property_id":503031},"id":"com_clue_bar_tavern_pub_patron_capacity_2016.fid--2ea3ac96_163341f620f_-3ae1"},{"type":"Feature","geometry":{"type":"Point","coordinates":[144.9715659,-37.81212537]},"properties":{"property_id":101113,"clue_small_area":"Melbourne (CBD)","trading_name":"Club Asuka","census_year":2016,"longitude":144.9715659,"latitude":-37.81212537,"street_address":"59-63 Bourke Street","number_of_patrons":150,"block_id":48,"base_property_id":101113},"id":"com_clue_bar_tavern_pub_patron_capacity_2016.fid--2ea3ac96_163341f620f_-3ae0"},{"type":"Feature","geometry":{"type":"Point","coordinates":[144.972676,-37.8112003]},"properties":{"property_id":101238,"clue_small_area":"Melbourne (CBD)","trading_name":"Imperial Hotel","census_year":2016,"longitude":144.972676,"latitude":-37.8112003,"street_address":"2-8 Bourke Street","number_of_patrons":300,"block_id":58,"base_property_id":101238},"id":"com_clue_bar_tavern_pub_patron_capacity_2016.fid--2ea3ac96_163341f620f_-3adf"},{"type":"Feature","geometry":{"type":"Point","coordinates":[144.9591218,-37.81674542]},"properties":{"property_id":110148,"clue_small_area":"Melbourne (CBD)","trading_name":"The Australian Club","census_year":2016,"longitude":144.9591218,"latitude":-37.81674542,"street_address":"98-110 William Street","number_of_patrons":280,"block_id":33,"base_property_id":110148},"id":"com_clue_bar_tavern_pub_patron_capacity_2016.fid--2ea3ac96_163341f620f_-3ade"},{"type":"Feature","geometry":{"type":"Point","coordinates":[144.9605409,-37.81549904]},"properties":{"property_id":108069,"clue_small_area":"Melbourne (CBD)","trading_name":"The Turf Bar & Restaurant","census_year":2016,"longitude":144.9605409,"latitude":-37.81549904,"street_address":"131-141 Queen Street","number_of_patrons":527,"block_id":43,"base_property_id":108069},"id":"com_clue_bar_tavern_pub_patron_capacity_2016.fid--2ea3ac96_163341f620f_-3add"},{"type":"Feature","geometry":{"type":"Point","coordinates":[144.9719903,-37.81074304]},"properties":{"property_id":105828,"clue_small_area":"Melbourne (CBD)","trading_name":"Mrs Parma's ","census_year":2016,"longitude":144.9719903,"latitude":-37.81074304,"street_address":"19-25 Little Bourke Street","number_of_patrons":300,"block_id":58,"base_property_id":105828},"id":"com_clue_bar_tavern_pub_patron_capacity_2016.fid--2ea3ac96_163341f620f_-3adc"},{"type":"Feature","geometry":{"type":"Point","coordinates":[144.9579514,-37.8176551]},"properties":{"property_id":102118,"clue_small_area":"Melbourne (CBD)","trading_name":"Paloma","census_year":2016,"longitude":144.9579514,"latitude":-37.8176551,"street_address":"480-490 Collins Street","number_of_patrons":80,"block_id":32,"base_property_id":102118},"id":"com_clue_bar_tavern_pub_patron_capacity_2016.fid--2ea3ac96_163341f620f_-3adb"},{"type":"Feature","geometry":{"type":"Point","coordinates":[144.9585484,-37.8184145]},"properties":{"property_id":102102,"clue_small_area":"Melbourne (CBD)","trading_name":"State of Grace","census_year":2016,"longitude":144.9585484,"latitude":-37.8184145,"street_address":"471-485 Collins Street","number_of_patrons":200,"block_id":22,"base_property_id":102102},"id":"com_clue_bar_tavern_pub_patron_capacity_2016.fid--2ea3ac96_163341f620f_-3ada"},{"type":"Feature","geometry":{"type":"Point","coordinates":[144.9576571,-37.82005619]},"properties":{"property_id":103994,"clue_small_area":"Melbourne (CBD)","trading_name":"Insignia on Flinders","census_year":2016,"longitude":144.9576571,"latitude":-37.82005619,"street_address":"502-504 Flinders Street","number_of_patrons":100,"block_id":12,"base_property_id":103994},"id":"com_clue_bar_tavern_pub_patron_capacity_2016.fid--2ea3ac96_163341f620f_-3ad9"},{"type":"Feature","geometry":{"type":"Point","coordinates":[144.9605226,-37.80918797]},"properties":{"property_id":103219,"clue_small_area":"Melbourne (CBD)","trading_name":"Workshop","census_year":2016,"longitude":144.9605226,"latitude":-37.80918797,"street_address":"413-417 Elizabeth Street","number_of_patrons":230,"block_id":104,"base_property_id":103219},"id":"com_clue_bar_tavern_pub_patron_capacity_2016.fid--2ea3ac96_163341f620f_-3ad8"},{"type":"Feature","geometry":{"type":"Point","coordinates":[144.9710404,-37.81217956]},"properties":{"property_id":101116,"clue_small_area":"Melbourne (CBD)","trading_name":"Tuscan Bar Melbourne","census_year":2016,"longitude":144.9710404,"latitude":-37.81217956,"street_address":"79-85 Bourke Street","number_of_patrons":300,"block_id":48,"base_property_id":101116},"id":"com_clue_bar_tavern_pub_patron_capacity_2016.fid--2ea3ac96_163341f620f_-3ad7"},{"type":"Feature","geometry":{"type":"Point","coordinates":[144.9684328,-37.81123016]},"properties":{"property_id":102200,"clue_small_area":"Melbourne (CBD)","trading_name":"Fad Gallery","census_year":2016,"longitude":144.9684328,"latitude":-37.81123016,"street_address":"12-14 Corrs Lane","number_of_patrons":80,"block_id":67,"base_property_id":102200},"id":"com_clue_bar_tavern_pub_patron_capacity_2016.fid--2ea3ac96_163341f620f_-3ad6"},{"type":"Feature","geometry":{"type":"Point","coordinates":[144.963217,-37.80904283]},"properties":{"property_id":109314,"clue_small_area":"Melbourne (CBD)","trading_name":"The Order of Melbourne","census_year":2016,"longitude":144.963217,"latitude":-37.80904283,"street_address":"401-405 Swanston Street","number_of_patrons":290,"block_id":95,"base_property_id":109314},"id":"com_clue_bar_tavern_pub_patron_capacity_2016.fid--2ea3ac96_163341f620f_-3ad5"},{"type":"Feature","geometry":{"type":"Point","coordinates":[144.9553525,-37.81740928]},"properties":{"property_id":105948,"clue_small_area":"Melbourne (CBD)","trading_name":"Saint & Rogue","census_year":2016,"longitude":144.9553525,"latitude":-37.81740928,"street_address":"582-584 Little Collins Street","number_of_patrons":300,"block_id":41,"base_property_id":105948},"id":"com_clue_bar_tavern_pub_patron_capacity_2016.fid--2ea3ac96_163341f620f_-3ad4"},{"type":"Feature","geometry":{"type":"Point","coordinates":[144.9558446,-37.81824465]},"properties":{"property_id":102113,"clue_small_area":"Melbourne (CBD)","trading_name":"Nero Bar","census_year":2016,"longitude":144.9558446,"latitude":-37.81824465,"street_address":"546-566 Collins Street","number_of_patrons":80,"block_id":31,"base_property_id":102113},"id":"com_clue_bar_tavern_pub_patron_capacity_2016.fid--2ea3ac96_163341f620f_-3ad3"},{"type":"Feature","geometry":{"type":"Point","coordinates":[144.9687195,-37.80913623]},"properties":{"property_id":106059,"clue_small_area":"Melbourne (CBD)","trading_name":"Gami Chicken and Beer","census_year":2016,"longitude":144.9687195,"latitude":-37.80913623,"street_address":"100 Little Lonsdale Street","number_of_patrons":73,"block_id":87,"base_property_id":106059},"id":"com_clue_bar_tavern_pub_patron_capacity_2016.fid--2ea3ac96_163341f620f_-3ad2"},{"type":"Feature","geometry":{"type":"Point","coordinates":[144.963217,-37.80904283]},"properties":{"property_id":109314,"clue_small_area":"Melbourne (CBD)","trading_name":"Red Love","census_year":2016,"longitude":144.963217,"latitude":-37.80904283,"street_address":"401-405 Swanston Street","number_of_patrons":200,"block_id":95,"base_property_id":109314},"id":"com_clue_bar_tavern_pub_patron_capacity_2016.fid--2ea3ac96_163341f620f_-3ad1"},{"type":"Feature","geometry":{"type":"Point","coordinates":[144.9683854,-37.81112914]},"properties":{"property_id":102199,"clue_small_area":"Melbourne (CBD)","trading_name":"Berlin Bar, Brutale & Mendoza's Social Club","census_year":2016,"longitude":144.9683854,"latitude":-37.81112914,"street_address":"16-20 Corrs Lane","number_of_patrons":569,"block_id":67,"base_property_id":102199},"id":"com_clue_bar_tavern_pub_patron_capacity_2016.fid--2ea3ac96_163341f620f_-3ad0"},{"type":"Feature","geometry":{"type":"Point","coordinates":[144.9712228,-37.81543506]},"properties":{"property_id":103921,"clue_small_area":"Melbourne (CBD)","trading_name":"Papa Goose","census_year":2016,"longitude":144.9712228,"latitude":-37.81543506,"street_address":"91-93 Flinders Lane","number_of_patrons":440,"block_id":17,"base_property_id":103921},"id":"com_clue_bar_tavern_pub_patron_capacity_2016.fid--2ea3ac96_163341f620f_-3acf"},{"type":"Feature","geometry":{"type":"Point","coordinates":[144.9724291,-37.8109513]},"properties":{"property_id":108986,"clue_small_area":"Melbourne (CBD)","trading_name":"The European","census_year":2016,"longitude":144.9724291,"latitude":-37.8109513,"street_address":"161 Spring Street","number_of_patrons":703,"block_id":58,"base_property_id":108986},"id":"com_clue_bar_tavern_pub_patron_capacity_2016.fid--2ea3ac96_163341f620f_-3ace"},{"type":"Feature","geometry":{"type":"Point","coordinates":[144.9711999,-37.81285806]},"properties":{"property_id":103626,"clue_small_area":"Melbourne (CBD)","trading_name":"European Bier Cafe","census_year":2016,"longitude":144.9711999,"latitude":-37.81285806,"street_address":"114-122 Exhibition Street","number_of_patrons":550,"block_id":48,"base_property_id":103626},"id":"com_clue_bar_tavern_pub_patron_capacity_2016.fid--2ea3ac96_163341f620f_-3acd"},{"type":"Feature","geometry":{"type":"Point","coordinates":[144.9671591,-37.81011116]},"properties":{"property_id":108573,"clue_small_area":"Melbourne (CBD)","trading_name":"Whisky and Alement","census_year":2016,"longitude":144.9671591,"latitude":-37.81011116,"street_address":"270 Russell Street","number_of_patrons":90,"block_id":77,"base_property_id":108573},"id":"com_clue_bar_tavern_pub_patron_capacity_2016.fid--2ea3ac96_163341f620f_-3acc"},{"type":"Feature","geometry":{"type":"Point","coordinates":[144.9608476,-37.81614776]},"properties":{"property_id":108067,"clue_small_area":"Melbourne (CBD)","trading_name":"Chaise Lounge","census_year":2016,"longitude":144.9608476,"latitude":-37.81614776,"street_address":"103-105 Queen Street","number_of_patrons":140,"block_id":33,"base_property_id":108067},"id":"com_clue_bar_tavern_pub_patron_capacity_2016.fid--2ea3ac96_163341f620f_-3acb"},{"type":"Feature","geometry":{"type":"Point","coordinates":[144.9579702,-37.81970334]},"properties":{"property_id":104824,"clue_small_area":"Melbourne (CBD)","trading_name":"Highlander Bar","census_year":2016,"longitude":144.9579702,"latitude":-37.81970334,"street_address":"11A Highlander Lane","number_of_patrons":202,"block_id":12,"base_property_id":104824},"id":"com_clue_bar_tavern_pub_patron_capacity_2016.fid--2ea3ac96_163341f620f_-3aca"},{"type":"Feature","geometry":{"type":"Point","coordinates":[144.9535902,-37.81663038]},"properties":{"property_id":108963,"clue_small_area":"Melbourne (CBD)","trading_name":"Mail Exchange Hotel","census_year":2016,"longitude":144.9535902,"latitude":-37.81663038,"street_address":"672-696 Bourke Street","number_of_patrons":600,"block_id":51,"base_property_id":108963},"id":"com_clue_bar_tavern_pub_patron_capacity_2016.fid--2ea3ac96_163341f620f_-3ac9"},{"type":"Feature","geometry":{"type":"Point","coordinates":[144.9564078,-37.81703156]},"properties":{"property_id":105392,"clue_small_area":"Melbourne (CBD)","trading_name":"El Coco","census_year":2016,"longitude":144.9564078,"latitude":-37.81703156,"street_address":"120-138 King Street","number_of_patrons":995,"block_id":42,"base_property_id":105392},"id":"com_clue_bar_tavern_pub_patron_capacity_2016.fid--2ea3ac96_163341f620f_-3ac8"},{"type":"Feature","geometry":{"type":"Point","coordinates":[144.9672465,-37.80828608]},"properties":{"property_id":105493,"clue_small_area":"Melbourne (CBD)","trading_name":"Karaoke Box","census_year":2016,"longitude":144.9672465,"latitude":-37.80828608,"street_address":"52 La Trobe Street","number_of_patrons":300,"block_id":97,"base_property_id":105493},"id":"com_clue_bar_tavern_pub_patron_capacity_2016.fid--2ea3ac96_163341f620f_-3ac7"},{"type":"Feature","geometry":{"type":"Point","coordinates":[144.9574447,-37.80998494]},"properties":{"property_id":100160,"clue_small_area":"Melbourne (CBD)","trading_name":"Nomads Industry Backpackers","census_year":2016,"longitude":144.9574447,"latitude":-37.80998494,"street_address":"196-200 A'Beckett Street","number_of_patrons":200,"block_id":103,"base_property_id":100160},"id":"com_clue_bar_tavern_pub_patron_capacity_2016.fid--2ea3ac96_163341f620f_-3ac6"},{"type":"Feature","geometry":{"type":"Point","coordinates":[144.95469,-37.81929312]},"properties":{"property_id":606461,"clue_small_area":"Melbourne (CBD)","trading_name":"Batman's Hill On Collins Hotel","census_year":2016,"longitude":144.95469,"latitude":-37.81929312,"street_address":"607-623 Collins Street","number_of_patrons":1500,"block_id":21,"base_property_id":606461},"id":"com_clue_bar_tavern_pub_patron_capacity_2016.fid--2ea3ac96_163341f620f_-3ac5"},{"type":"Feature","geometry":{"type":"Point","coordinates":[144.9708344,-37.81560645]},"properties":{"property_id":103924,"clue_small_area":"Melbourne (CBD)","trading_name":"Bambu Bar","census_year":2016,"longitude":144.9708344,"latitude":-37.81560645,"street_address":"107-109 Flinders Lane","number_of_patrons":230,"block_id":17,"base_property_id":103924},"id":"com_clue_bar_tavern_pub_patron_capacity_2016.fid--2ea3ac96_163341f620f_-3ac4"},{"type":"Feature","geometry":{"type":"Point","coordinates":[144.9606367,-37.81581152]},"properties":{"property_id":108068,"clue_small_area":"Melbourne (CBD)","trading_name":"CitiClub On Queen Hotel ","census_year":2016,"longitude":144.9606367,"latitude":-37.81581152,"street_address":"111-129 Queen Street","number_of_patrons":940,"block_id":43,"base_property_id":108068},"id":"com_clue_bar_tavern_pub_patron_capacity_2016.fid--2ea3ac96_163341f620f_-3ac3"},{"type":"Feature","geometry":{"type":"Point","coordinates":[144.9606367,-37.81581152]},"properties":{"property_id":108068,"clue_small_area":"Melbourne (CBD)","trading_name":"CQ Bar","census_year":2016,"longitude":144.9606367,"latitude":-37.81581152,"street_address":"111-129 Queen Street","number_of_patrons":840,"block_id":43,"base_property_id":108068},"id":"com_clue_bar_tavern_pub_patron_capacity_2016.fid--2ea3ac96_163341f620f_-3ac2"},{"type":"Feature","geometry":{"type":"Point","coordinates":[144.9577148,-37.81977635]},"properties":{"property_id":105401,"clue_small_area":"Melbourne (CBD)","trading_name":"Tramp Bar","census_year":2016,"longitude":144.9577148,"latitude":-37.81977635,"street_address":"14-20 King Street","number_of_patrons":200,"block_id":12,"base_property_id":105401},"id":"com_clue_bar_tavern_pub_patron_capacity_2016.fid--2ea3ac96_163341f620f_-3ac1"},{"type":"Feature","geometry":{"type":"Point","coordinates":[144.9699756,-37.80941489]},"properties":{"property_id":103618,"clue_small_area":"Melbourne (CBD)","trading_name":"Coopers Inn","census_year":2016,"longitude":144.9699756,"latitude":-37.80941489,"street_address":"242-284 Exhibition Street","number_of_patrons":400,"block_id":78,"base_property_id":103618},"id":"com_clue_bar_tavern_pub_patron_capacity_2016.fid--2ea3ac96_163341f620f_-3ac0"},{"type":"Feature","geometry":{"type":"Point","coordinates":[144.9595925,-37.81587957]},"properties":{"property_id":101154,"clue_small_area":"Melbourne (CBD)","trading_name":"RACV City Club","census_year":2016,"longitude":144.9595925,"latitude":-37.81587957,"street_address":"483-501 Bourke Street","number_of_patrons":410,"block_id":43,"base_property_id":101154},"id":"com_clue_bar_tavern_pub_patron_capacity_2016.fid--2ea3ac96_163341f620f_-3abf"},{"type":"Feature","geometry":{"type":"Point","coordinates":[144.9701585,-37.81573536]},"properties":{"property_id":103928,"clue_small_area":"Melbourne (CBD)","trading_name":"Meat Ball","census_year":2016,"longitude":144.9701585,"latitude":-37.81573536,"street_address":"133-135 Flinders Lane","number_of_patrons":110,"block_id":17,"base_property_id":103928},"id":"com_clue_bar_tavern_pub_patron_capacity_2016.fid--2ea3ac96_163341f620f_-3abe"},{"type":"Feature","geometry":{"type":"Point","coordinates":[144.9606367,-37.81581152]},"properties":{"property_id":108068,"clue_small_area":"Melbourne (CBD)","trading_name":"Karstens At CQ ","census_year":2016,"longitude":144.9606367,"latitude":-37.81581152,"street_address":"111-129 Queen Street","number_of_patrons":170,"block_id":43,"base_property_id":108068},"id":"com_clue_bar_tavern_pub_patron_capacity_2016.fid--2ea3ac96_163341f620f_-3abd"},{"type":"Feature","geometry":{"type":"Point","coordinates":[144.9606367,-37.81581152]},"properties":{"property_id":108068,"clue_small_area":"Melbourne (CBD)","trading_name":"Blue Diamond","census_year":2016,"longitude":144.9606367,"latitude":-37.81581152,"street_address":"111-129 Queen Street","number_of_patrons":200,"block_id":43,"base_property_id":108068},"id":"com_clue_bar_tavern_pub_patron_capacity_2016.fid--2ea3ac96_163341f620f_-3abc"},{"type":"Feature","geometry":{"type":"Point","coordinates":[144.9610213,-37.81649711]},"properties":{"property_id":108064,"clue_small_area":"Melbourne (CBD)","trading_name":"Element Lounge","census_year":2016,"longitude":144.9610213,"latitude":-37.81649711,"street_address":"85-91 Queen Street","number_of_patrons":230,"block_id":33,"base_property_id":108064},"id":"com_clue_bar_tavern_pub_patron_capacity_2016.fid--2ea3ac96_163341f620f_-3abb"},{"type":"Feature","geometry":{"type":"Point","coordinates":[144.9321953,-37.78932218]},"properties":{"property_id":616125,"clue_small_area":"Kensington","trading_name":"Flemington & Kensington RSL Club","census_year":2016,"longitude":144.9321953,"latitude":-37.78932218,"street_address":"25-27 Rankins Road","number_of_patrons":90,"block_id":2530,"base_property_id":616125},"id":"com_clue_bar_tavern_pub_patron_capacity_2016.fid--2ea3ac96_163341f620f_-3aba"},{"type":"Feature","geometry":{"type":"Point","coordinates":[144.9309535,-37.82210926]},"properties":{"property_id":600431,"clue_small_area":"Port Melbourne","trading_name":"Underbridge Sports Bar & Cafe","census_year":2016,"longitude":144.9309535,"latitude":-37.82210926,"street_address":"816 Lorimer Street","number_of_patrons":60,"block_id":774,"base_property_id":600431},"id":"com_clue_bar_tavern_pub_patron_capacity_2016.fid--2ea3ac96_163341f620f_-3ab9"},{"type":"Feature","geometry":{"type":"Point","coordinates":[144.9662623,-37.82066923]},"properties":{"property_id":110606,"clue_small_area":"Southbank","trading_name":"Bear Brass","census_year":2016,"longitude":144.9662623,"latitude":-37.82066923,"street_address":"3 Southgate Avenue","number_of_patrons":200,"block_id":753,"base_property_id":110380},"id":"com_clue_bar_tavern_pub_patron_capacity_2016.fid--2ea3ac96_163341f620f_-3ab8"},{"type":"Feature","geometry":{"type":"Point","coordinates":[144.9586604,-37.82312164]},"properties":{"property_id":111175,"clue_small_area":"Southbank","trading_name":"The Waiting Room","census_year":2016,"longitude":144.9586604,"latitude":-37.82312164,"street_address":"8 Whiteman Street","number_of_patrons":120,"block_id":803,"base_property_id":110477},"id":"com_clue_bar_tavern_pub_patron_capacity_2016.fid--2ea3ac96_163341f620f_-3ab7"},{"type":"Feature","geometry":{"type":"Point","coordinates":[144.9586604,-37.82312164]},"properties":{"property_id":111175,"clue_small_area":"Southbank","trading_name":"No. 8 by John Lawson","census_year":2016,"longitude":144.9586604,"latitude":-37.82312164,"street_address":"8 Whiteman Street","number_of_patrons":40,"block_id":803,"base_property_id":110477},"id":"com_clue_bar_tavern_pub_patron_capacity_2016.fid--2ea3ac96_163341f620f_-3ab6"},{"type":"Feature","geometry":{"type":"Point","coordinates":[144.9586604,-37.82312164]},"properties":{"property_id":111175,"clue_small_area":"Southbank","trading_name":"The Atlantic\/The Den \/The Oyster Bar & Grill","census_year":2016,"longitude":144.9586604,"latitude":-37.82312164,"street_address":"8 Whiteman Street","number_of_patrons":508,"block_id":803,"base_property_id":110477},"id":"com_clue_bar_tavern_pub_patron_capacity_2016.fid--2ea3ac96_163341f620f_-3ab5"},{"type":"Feature","geometry":{"type":"Point","coordinates":[144.9633758,-37.82092509]},"properties":{"property_id":110326,"clue_small_area":"Southbank","trading_name":"Soho Restaurant & Bar","census_year":2016,"longitude":144.9633758,"latitude":-37.82092509,"street_address":"4 Riverside Quay","number_of_patrons":200,"block_id":801,"base_property_id":110326},"id":"com_clue_bar_tavern_pub_patron_capacity_2016.fid--2ea3ac96_163341f620f_-3ab4"},{"type":"Feature","geometry":{"type":"Point","coordinates":[144.9628914,-37.8210403]},"properties":{"property_id":110335,"clue_small_area":"Southbank","trading_name":"Left Bank Melbourne","census_year":2016,"longitude":144.9628914,"latitude":-37.8210403,"street_address":"1-9 Southbank Boulevard","number_of_patrons":400,"block_id":801,"base_property_id":110335},"id":"com_clue_bar_tavern_pub_patron_capacity_2016.fid--2ea3ac96_163341f620f_-3ab3"},{"type":"Feature","geometry":{"type":"Point","coordinates":[144.9645668,-37.82166549]},"properties":{"property_id":559161,"clue_small_area":"Southbank","trading_name":"Belgian Beer Cafe Melbourne","census_year":2016,"longitude":144.9645668,"latitude":-37.82166549,"street_address":"3-7 Riverside Quay","number_of_patrons":638,"block_id":801,"base_property_id":559161},"id":"com_clue_bar_tavern_pub_patron_capacity_2016.fid--2ea3ac96_163341f620f_-3ab2"},{"type":"Feature","geometry":{"type":"Point","coordinates":[144.9586604,-37.82312164]},"properties":{"property_id":111175,"clue_small_area":"Southbank","trading_name":"Therapy","census_year":2016,"longitude":144.9586604,"latitude":-37.82312164,"street_address":"8 Whiteman Street","number_of_patrons":600,"block_id":803,"base_property_id":110477},"id":"com_clue_bar_tavern_pub_patron_capacity_2016.fid--2ea3ac96_163341f620f_-3ab1"},{"type":"Feature","geometry":{"type":"Point","coordinates":[144.9662623,-37.82066923]},"properties":{"property_id":110606,"clue_small_area":"Southbank","trading_name":"P J O'Briens Irish Pub & Side Bar","census_year":2016,"longitude":144.9662623,"latitude":-37.82066923,"street_address":"3 Southgate Avenue","number_of_patrons":550,"block_id":753,"base_property_id":110380},"id":"com_clue_bar_tavern_pub_patron_capacity_2016.fid--2ea3ac96_163341f620f_-3ab0"},{"type":"Feature","geometry":{"type":"Point","coordinates":[144.95658,-37.82791506]},"properties":{"property_id":110473,"clue_small_area":"Southbank","trading_name":"The Backlot Studios ","census_year":2016,"longitude":144.95658,"latitude":-37.82791506,"street_address":"65-73 Haig Street","number_of_patrons":80,"block_id":730,"base_property_id":110473},"id":"com_clue_bar_tavern_pub_patron_capacity_2016.fid--2ea3ac96_163341f620f_-3aaf"},{"type":"Feature","geometry":{"type":"Point","coordinates":[144.9586604,-37.82312164]},"properties":{"property_id":111175,"clue_small_area":"Southbank","trading_name":"Jimbo & Rex ","census_year":2016,"longitude":144.9586604,"latitude":-37.82312164,"street_address":"8 Whiteman Street","number_of_patrons":300,"block_id":803,"base_property_id":110477},"id":"com_clue_bar_tavern_pub_patron_capacity_2016.fid--2ea3ac96_163341f620f_-3aae"},{"type":"Feature","geometry":{"type":"Point","coordinates":[144.9586604,-37.82312164]},"properties":{"property_id":111175,"clue_small_area":"Southbank","trading_name":"Co","census_year":2016,"longitude":144.9586604,"latitude":-37.82312164,"street_address":"8 Whiteman Street","number_of_patrons":560,"block_id":803,"base_property_id":110477},"id":"com_clue_bar_tavern_pub_patron_capacity_2016.fid--2ea3ac96_163341f620f_-3aad"},{"type":"Feature","geometry":{"type":"Point","coordinates":[144.9586604,-37.82312164]},